{"pageProps":{"villages":[{"lat":"12.261882","lon":"123.343322","barangay":"Alas","municipality":"Mandaon","province":"Masbate","association":"Alas Farmers Association"},{"barangay":"Alayao","lat":"14.283999","province":"Camarines Norte","association":"Cabibiroc-Alayao Farmers Association (CAFA)","municipality":"Capalonga","lon":"122.557276"},{"barangay":"Biong","province":"Catanduanes","lon":"124.362139","association":"Biong Farmers Association","municipality":"Gigmoto","lat":"13.77147"},{"lon":"123.106714","lat":"13.63714","association":"Cagbunga Riverside Farmers Organization","province":"Camarines Sur","barangay":"Cagbunga","municipality":"Pamplona"},{"barangay":"Dinapa","province":"Sorsogon","lon":"123.786951","municipality":"Castilla","association":"Dinapa Farmers Association","lat":"12.908257"},{"province":"Albay","lat":"13.489628","municipality":"Tiwi","lon":"123.620308","barangay":"Joroan","association":"Joroan Farmers and Fisherfollks Association"},{"association":"Paracale Corn and Cassava Farmers Association","lon":"122.820835","lat":"14.269422","municipality":"Paracale","province":"Camarines Norte","barangay":"Labnig"},{"province":"Albay","barangay":"Marigondon","lat":"13.054393","lon":"123.431072","municipality":"Pio Duran","association":"AMIA (Asenso Marigondon Irrigators Association)"},{"lat":"13.885986","province":"Catanduanes","association":"Peñafrancia Farmers and Fisherfolks Association","barangay":"Peñafrancia","lon":"124.319818","municipality":"Viga"},{"barangay":"Quezon","lon":"123.801844","municipality":"Uson","lat":"12.193129","province":"Masbate","association":" Quezon Small Farmers Association MaQueba (Magsaysay,Quezon and Badling"},{"association":"San Isidro Farmers Association","municipality":"Prieto Diaz","lat":"13.028927","province":"Sorsogon","barangay":"San Isidro","lon":"124.172603"},{"lat":"12.190327","association":"San Mateo Farmers Association","province":"Masbate","municipality":"Uson","lon":"123.817117","barangay":"San Mateo"},{"barangay":"Tampadong","municipality":"Pamplona","association":"TARBA (Tampadong Agrarian Reform Beneficiaries Association)","lon":"123.046109","lat":"13.567574","province":"Camarines Sur"},{"barangay":"Veneracion","association":" VEVUFAI (Veneracion Urban Farmers Assocaition,Inc.)","lat":"13.555508","municipality":"Pamplona","province":"Camarines Sur","lon":"123.062039"}],"media":["https://firebasestorage.googleapis.com/v0/b/amia-cis-dev.appspot.com/o/media%2Fimages%2Fgallery%2Fth_clouds.png?alt=media&token=be6d403d-c2d7-4970-9be8-caa1ec484dd2","https://firebasestorage.googleapis.com/v0/b/amia-cis-dev.appspot.com/o/media%2Fimages%2Fgallery%2Fth_seasonal.png?alt=media&token=884f1234-bfc5-4927-91c7-006a90110a24","https://firebasestorage.googleapis.com/v0/b/amia-cis-dev.appspot.com/o/media%2Fimages%2Fgallery%2Fth_typhoon_03.png?alt=media&token=864f099e-29f8-4a17-b282-0af0c121254a"],"info":{"description":"View or download bulletin PDF recommendations for the Seasonal and 10-Day Weather Outlook","url":"https://firebasestorage.googleapis.com/v0/b/amia-cis-dev.appspot.com/o/media%2Fimages%2Fopengraph%2F1200x600%2Fog_bulletins_1200.png?alt=media&token=54e900b0-cb13-4f0f-9418-b8052580ffeb","path":"https://amia-cis.github.io/bulletins"}},"__N_SSG":true}