{"pageProps":{"villages":[{"association":"Alas Farmers Association","province":"Masbate","barangay":"Alas","lon":"123.343322","lat":"12.261882","municipality":"Mandaon"},{"association":"Cabibiroc-Alayao Farmers Association (CAFA)","barangay":"Alayao","municipality":"Capalonga","province":"Camarines Norte","lat":"14.283999","lon":"122.557276"},{"lat":"13.77147","province":"Catanduanes","lon":"124.362139","association":"Biong Farmers Association","municipality":"Gigmoto","barangay":"Biong"},{"lon":"123.106714","barangay":"Cagbunga","municipality":"Pamplona","association":"Cagbunga Riverside Farmers Organization","province":"Camarines Sur","lat":"13.63714"},{"barangay":"Dinapa","province":"Sorsogon","lat":"12.908257","lon":"123.786951","association":"Dinapa Farmers Association","municipality":"Castilla"},{"lon":"123.620308","municipality":"Tiwi","association":"Joroan Farmers and Fisherfollks Association","barangay":"Joroan","province":"Albay","lat":"13.489628"},{"province":"Camarines Norte","association":"Paracale Corn and Cassava Farmers Association","lat":"14.269422","lon":"122.820835","municipality":"Paracale","barangay":"Labnig"},{"lat":"13.054393","barangay":"Marigondon","municipality":"Pio Duran","province":"Albay","lon":"123.431072","association":"AMIA (Asenso Marigondon Irrigators Association)"},{"lat":"13.885986","province":"Catanduanes","barangay":"Peñafrancia","municipality":"Viga","association":"Peñafrancia Farmers and Fisherfolks Association","lon":"124.319818"},{"municipality":"Uson","barangay":"Quezon","province":"Masbate","lon":"123.801844","lat":"12.193129","association":" Quezon Small Farmers Association MaQueba (Magsaysay,Quezon and Badling"},{"association":"San Isidro Farmers Association","lon":"124.172603","municipality":"Prieto Diaz","province":"Sorsogon","lat":"13.028927","barangay":"San Isidro"},{"lat":"12.190327","province":"Masbate","municipality":"Uson","barangay":"San Mateo","lon":"123.817117","association":"San Mateo Farmers Association"},{"province":"Camarines Sur","association":"TARBA (Tampadong Agrarian Reform Beneficiaries Association)","lat":"13.567574","lon":"123.046109","barangay":"Tampadong","municipality":"Pamplona"},{"association":" VEVUFAI (Veneracion Urban Farmers Assocaition,Inc.)","lat":"13.555508","province":"Camarines Sur","lon":"123.062039","municipality":"Pamplona","barangay":"Veneracion"}],"media":{"description":"Download Regional Seasonal Climate Outlook and Advisory PDF bulletins.","url":"https://firebasestorage.googleapis.com/v0/b/amia-cis-dev.appspot.com/o/media%2Fimages%2Fopengraph%2F1200x600%2Fog_bulletins_seasonal.png?alt=media&token=18cb4216-8ee9-4da8-b49c-f13fcfb025cb","path":"https://amia-cis.github.io/bulletins/seasonal-outlook"}},"__N_SSG":true}