{"pageProps":{"villages":[{"lat":"12.261882","association":"Alas Farmers Association","municipality":"Mandaon","province":"Masbate","lon":"123.343322","barangay":"Alas"},{"lat":"14.283999","municipality":"Capalonga","association":"Cabibiroc-Alayao Farmers Association (CAFA)","barangay":"Alayao","province":"Camarines Norte","lon":"122.557276"},{"lat":"13.77147","barangay":"Biong","province":"Catanduanes","municipality":"Gigmoto","lon":"124.362139","association":"Biong Farmers Association"},{"municipality":"Pamplona","association":"Cagbunga Riverside Farmers Organization","lon":"123.106714","barangay":"Cagbunga","lat":"13.63714","province":"Camarines Sur"},{"province":"Sorsogon","municipality":"Castilla","lon":"123.786951","association":"Dinapa Farmers Association","barangay":"Dinapa","lat":"12.908257"},{"municipality":"Tiwi","province":"Albay","association":"Joroan Farmers and Fisherfollks Association","lon":"123.620308","barangay":"Joroan","lat":"13.489628"},{"municipality":"Paracale","association":"Paracale Corn and Cassava Farmers Association","province":"Camarines Norte","lon":"122.820835","lat":"14.269422","barangay":"Labnig"},{"municipality":"Pio Duran","association":"AMIA (Asenso Marigondon Irrigators Association)","lon":"123.431072","province":"Albay","barangay":"Marigondon","lat":"13.054393"},{"association":"Peñafrancia Farmers and Fisherfolks Association","municipality":"Viga","province":"Catanduanes","lon":"124.319818","lat":"13.885986","barangay":"Peñafrancia"},{"lon":"123.801844","municipality":"Uson","association":" Quezon Small Farmers Association MaQueba (Magsaysay,Quezon and Badling","province":"Masbate","lat":"12.193129","barangay":"Quezon"},{"lat":"13.028927","lon":"124.172603","municipality":"Prieto Diaz","barangay":"San Isidro","association":"San Isidro Farmers Association","province":"Sorsogon"},{"lon":"123.817117","lat":"12.190327","province":"Masbate","barangay":"San Mateo","association":"San Mateo Farmers Association","municipality":"Uson"},{"lat":"13.567574","lon":"123.046109","municipality":"Pamplona","barangay":"Tampadong","association":"TARBA (Tampadong Agrarian Reform Beneficiaries Association)","province":"Camarines Sur"},{"association":" VEVUFAI (Veneracion Urban Farmers Assocaition,Inc.)","lat":"13.555508","municipality":"Pamplona","barangay":"Veneracion","lon":"123.062039","province":"Camarines Sur"}]},"__N_SSG":true}