{"pageProps":{"villages":[{"barangay":"Alas","province":"Masbate","association":"Alas Farmers Association","municipality":"Mandaon","lon":"123.343322","lat":"12.261882"},{"municipality":"Capalonga","province":"Camarines Norte","lon":"122.557276","association":"Cabibiroc-Alayao Farmers Association (CAFA)","barangay":"Alayao","lat":"14.283999"},{"province":"Catanduanes","municipality":"Gigmoto","association":"Biong Farmers Association","lon":"124.362139","lat":"13.77147","barangay":"Biong"},{"lon":"123.106714","barangay":"Cagbunga","lat":"13.63714","municipality":"Pamplona","association":"Cagbunga Riverside Farmers Organization","province":"Camarines Sur"},{"lat":"12.908257","municipality":"Castilla","barangay":"Dinapa","lon":"123.786951","association":"Dinapa Farmers Association","province":"Sorsogon"},{"barangay":"Joroan","lon":"123.620308","lat":"13.489628","association":"Joroan Farmers and Fisherfollks Association","province":"Albay","municipality":"Tiwi"},{"barangay":"Labnig","province":"Camarines Norte","association":"Paracale Corn and Cassava Farmers Association","lon":"122.820835","municipality":"Paracale","lat":"14.269422"},{"municipality":"Pio Duran","province":"Albay","association":"AMIA (Asenso Marigondon Irrigators Association)","lat":"13.054393","barangay":"Marigondon","lon":"123.431072"},{"municipality":"Viga","province":"Catanduanes","barangay":"Peñafrancia","association":"Peñafrancia Farmers and Fisherfolks Association","lon":"124.319818","lat":"13.885986"},{"lon":"123.801844","association":" Quezon Small Farmers Association MaQueba (Magsaysay,Quezon and Badling","barangay":"Quezon","province":"Masbate","lat":"12.193129","municipality":"Uson"},{"association":"San Isidro Farmers Association","lon":"124.172603","lat":"13.028927","barangay":"San Isidro","municipality":"Prieto Diaz","province":"Sorsogon"},{"association":"San Mateo Farmers Association","lat":"12.190327","province":"Masbate","municipality":"Uson","barangay":"San Mateo","lon":"123.817117"},{"lat":"13.567574","province":"Camarines Sur","association":"TARBA (Tampadong Agrarian Reform Beneficiaries Association)","barangay":"Tampadong","lon":"123.046109","municipality":"Pamplona"},{"association":" VEVUFAI (Veneracion Urban Farmers Assocaition,Inc.)","province":"Camarines Sur","municipality":"Pamplona","lat":"13.555508","barangay":"Veneracion","lon":"123.062039"}]},"__N_SSG":true}