{"pageProps":{"villages":[{"municipality":"Mandaon","province":"Masbate","association":"Alas Farmers Association","lat":"12.261882","lon":"123.343322","barangay":"Alas"},{"barangay":"Alayao","lon":"122.557276","lat":"14.283999","province":"Camarines Norte","municipality":"Capalonga","association":"Cabibiroc-Alayao Farmers Association (CAFA)"},{"association":"Biong Farmers Association","municipality":"Gigmoto","barangay":"Biong","lon":"124.362139","province":"Catanduanes","lat":"13.77147"},{"province":"Camarines Sur","association":"Cagbunga Riverside Farmers Organization","lon":"123.106714","municipality":"Pamplona","barangay":"Cagbunga","lat":"13.63714"},{"municipality":"Castilla","barangay":"Dinapa","province":"Sorsogon","lat":"12.908257","lon":"123.786951","association":"Dinapa Farmers Association"},{"lon":"123.620308","association":"Joroan Farmers and Fisherfollks Association","barangay":"Joroan","lat":"13.489628","municipality":"Tiwi","province":"Albay"},{"province":"Camarines Norte","lat":"14.269422","barangay":"Labnig","lon":"122.820835","municipality":"Paracale","association":"Paracale Corn and Cassava Farmers Association"},{"barangay":"Marigondon","lat":"13.054393","lon":"123.431072","province":"Albay","municipality":"Pio Duran","association":"AMIA (Asenso Marigondon Irrigators Association)"},{"lat":"13.885986","association":"Peñafrancia Farmers and Fisherfolks Association","municipality":"Viga","barangay":"Peñafrancia","province":"Catanduanes","lon":"124.319818"},{"association":" Quezon Small Farmers Association MaQueba (Magsaysay,Quezon and Badling","barangay":"Quezon","province":"Masbate","lat":"12.193129","lon":"123.801844","municipality":"Uson"},{"barangay":"San Isidro","lat":"13.028927","lon":"124.172603","province":"Sorsogon","association":"San Isidro Farmers Association","municipality":"Prieto Diaz"},{"barangay":"San Mateo","municipality":"Uson","province":"Masbate","association":"San Mateo Farmers Association","lat":"12.190327","lon":"123.817117"},{"lon":"123.046109","municipality":"Pamplona","lat":"13.567574","barangay":"Tampadong","association":"TARBA (Tampadong Agrarian Reform Beneficiaries Association)","province":"Camarines Sur"},{"province":"Camarines Sur","barangay":"Veneracion","lat":"13.555508","municipality":"Pamplona","association":" VEVUFAI (Veneracion Urban Farmers Assocaition,Inc.)","lon":"123.062039"}]},"__N_SSG":true}