{"pageProps":{"villages":[{"province":"Masbate","lon":"123.343322","municipality":"Mandaon","association":"Alas Farmers Association","barangay":"Alas","lat":"12.261882"},{"barangay":"Alayao","municipality":"Capalonga","association":"Cabibiroc-Alayao Farmers Association (CAFA)","lon":"122.557276","province":"Camarines Norte","lat":"14.283999"},{"municipality":"Gigmoto","province":"Catanduanes","association":"Biong Farmers Association","lon":"124.362139","barangay":"Biong","lat":"13.77147"},{"lat":"13.63714","barangay":"Cagbunga","province":"Camarines Sur","association":"Cagbunga Riverside Farmers Organization","lon":"123.106714","municipality":"Pamplona"},{"municipality":"Castilla","province":"Sorsogon","barangay":"Dinapa","association":"Dinapa Farmers Association","lat":"12.908257","lon":"123.786951"},{"association":"Joroan Farmers and Fisherfollks Association","province":"Albay","municipality":"Tiwi","lon":"123.620308","lat":"13.489628","barangay":"Joroan"},{"municipality":"Paracale","association":"Paracale Corn and Cassava Farmers Association","lon":"122.820835","province":"Camarines Norte","lat":"14.269422","barangay":"Labnig"},{"lon":"123.431072","association":"AMIA (Asenso Marigondon Irrigators Association)","municipality":"Pio Duran","barangay":"Marigondon","lat":"13.054393","province":"Albay"},{"lat":"13.885986","barangay":"Peñafrancia","association":"Peñafrancia Farmers and Fisherfolks Association","province":"Catanduanes","municipality":"Viga","lon":"124.319818"},{"association":" Quezon Small Farmers Association MaQueba (Magsaysay,Quezon and Badling","province":"Masbate","municipality":"Uson","lat":"12.193129","lon":"123.801844","barangay":"Quezon"},{"barangay":"San Isidro","province":"Sorsogon","lon":"124.172603","lat":"13.028927","municipality":"Prieto Diaz","association":"San Isidro Farmers Association"},{"association":"San Mateo Farmers Association","lon":"123.817117","lat":"12.190327","municipality":"Uson","barangay":"San Mateo","province":"Masbate"},{"province":"Camarines Sur","association":"TARBA (Tampadong Agrarian Reform Beneficiaries Association)","municipality":"Pamplona","lon":"123.046109","lat":"13.567574","barangay":"Tampadong"},{"province":"Camarines Sur","lat":"13.555508","barangay":"Veneracion","municipality":"Pamplona","lon":"123.062039","association":" VEVUFAI (Veneracion Urban Farmers Assocaition,Inc.)"}],"media":{"description":"Download 10-Day Farm Weather Outlook PDF bulletins.","url":"https://firebasestorage.googleapis.com/v0/b/amia-cis-dev.appspot.com/o/media%2Fimages%2Fopengraph%2F1200x600%2Fog_bulletins_10day.png?alt=media&token=bb3599af-0756-4c3b-8f02-04397e388125","path":"https://amia-cis.github.io/bulletins/weather"}},"__N_SSG":true}