{"pageProps":{"villages":[{"lon":"123.343322","barangay":"Alas","municipality":"Mandaon","association":"Alas Farmers Association","lat":"12.261882","province":"Masbate"},{"lat":"14.283999","province":"Camarines Norte","municipality":"Capalonga","barangay":"Alayao","lon":"122.557276","association":"Cabibiroc-Alayao Farmers Association (CAFA)"},{"lon":"124.362139","municipality":"Gigmoto","province":"Catanduanes","lat":"13.77147","association":"Biong Farmers Association","barangay":"Biong"},{"municipality":"Pamplona","lon":"123.106714","province":"Camarines Sur","association":"Cagbunga Riverside Farmers Organization","lat":"13.63714","barangay":"Cagbunga"},{"association":"Dinapa Farmers Association","province":"Sorsogon","barangay":"Dinapa","municipality":"Castilla","lat":"12.908257","lon":"123.786951"},{"lat":"13.489628","municipality":"Tiwi","barangay":"Joroan","association":"Joroan Farmers and Fisherfollks Association","province":"Albay","lon":"123.620308"},{"lat":"14.269422","municipality":"Paracale","province":"Camarines Norte","association":"Paracale Corn and Cassava Farmers Association","barangay":"Labnig","lon":"122.820835"},{"association":"AMIA (Asenso Marigondon Irrigators Association)","lat":"13.054393","barangay":"Marigondon","province":"Albay","lon":"123.431072","municipality":"Pio Duran"},{"municipality":"Viga","lat":"13.885986","association":"Peñafrancia Farmers and Fisherfolks Association","lon":"124.319818","province":"Catanduanes","barangay":"Peñafrancia"},{"province":"Masbate","municipality":"Uson","lat":"12.193129","lon":"123.801844","association":" Quezon Small Farmers Association MaQueba (Magsaysay,Quezon and Badling","barangay":"Quezon"},{"municipality":"Prieto Diaz","association":"San Isidro Farmers Association","lon":"124.172603","barangay":"San Isidro","province":"Sorsogon","lat":"13.028927"},{"association":"San Mateo Farmers Association","barangay":"San Mateo","municipality":"Uson","lon":"123.817117","lat":"12.190327","province":"Masbate"},{"lon":"123.046109","association":"TARBA (Tampadong Agrarian Reform Beneficiaries Association)","province":"Camarines Sur","barangay":"Tampadong","lat":"13.567574","municipality":"Pamplona"},{"barangay":"Veneracion","lon":"123.062039","association":" VEVUFAI (Veneracion Urban Farmers Assocaition,Inc.)","lat":"13.555508","province":"Camarines Sur","municipality":"Pamplona"}]},"__N_SSG":true}