{"pageProps":{"villages":[{"lon":"123.343322","municipality":"Mandaon","association":"Alas Farmers Association","barangay":"Alas","province":"Masbate","lat":"12.261882"},{"barangay":"Alayao","association":"Cabibiroc-Alayao Farmers Association (CAFA)","lat":"14.283999","lon":"122.557276","province":"Camarines Norte","municipality":"Capalonga"},{"barangay":"Biong","province":"Catanduanes","lon":"124.362139","lat":"13.77147","municipality":"Gigmoto","association":"Biong Farmers Association"},{"association":"Cagbunga Riverside Farmers Organization","municipality":"Pamplona","barangay":"Cagbunga","lat":"13.63714","province":"Camarines Sur","lon":"123.106714"},{"municipality":"Castilla","association":"Dinapa Farmers Association","province":"Sorsogon","lat":"12.908257","barangay":"Dinapa","lon":"123.786951"},{"barangay":"Joroan","municipality":"Tiwi","province":"Albay","association":"Joroan Farmers and Fisherfollks Association","lon":"123.620308","lat":"13.489628"},{"association":"Paracale Corn and Cassava Farmers Association","lon":"122.820835","lat":"14.269422","barangay":"Labnig","municipality":"Paracale","province":"Camarines Norte"},{"province":"Albay","association":"AMIA (Asenso Marigondon Irrigators Association)","lon":"123.431072","municipality":"Pio Duran","barangay":"Marigondon","lat":"13.054393"},{"municipality":"Viga","barangay":"Peñafrancia","lat":"13.885986","lon":"124.319818","association":"Peñafrancia Farmers and Fisherfolks Association","province":"Catanduanes"},{"lat":"12.193129","barangay":"Quezon","association":" Quezon Small Farmers Association MaQueba (Magsaysay,Quezon and Badling","province":"Masbate","municipality":"Uson","lon":"123.801844"},{"barangay":"San Isidro","lon":"124.172603","municipality":"Prieto Diaz","association":"San Isidro Farmers Association","province":"Sorsogon","lat":"13.028927"},{"barangay":"San Mateo","lat":"12.190327","province":"Masbate","association":"San Mateo Farmers Association","lon":"123.817117","municipality":"Uson"},{"barangay":"Tampadong","association":"TARBA (Tampadong Agrarian Reform Beneficiaries Association)","lon":"123.046109","lat":"13.567574","province":"Camarines Sur","municipality":"Pamplona"},{"lat":"13.555508","association":" VEVUFAI (Veneracion Urban Farmers Assocaition,Inc.)","province":"Camarines Sur","lon":"123.062039","municipality":"Pamplona","barangay":"Veneracion"}],"media":["https://firebasestorage.googleapis.com/v0/b/amia-cis-dev.appspot.com/o/media%2Fimages%2Fgallery%2Fth_clouds.png?alt=media&token=be6d403d-c2d7-4970-9be8-caa1ec484dd2","https://firebasestorage.googleapis.com/v0/b/amia-cis-dev.appspot.com/o/media%2Fimages%2Fgallery%2Fth_seasonal.png?alt=media&token=884f1234-bfc5-4927-91c7-006a90110a24","https://firebasestorage.googleapis.com/v0/b/amia-cis-dev.appspot.com/o/media%2Fimages%2Fgallery%2Fth_typhoon_03.png?alt=media&token=864f099e-29f8-4a17-b282-0af0c121254a"],"info":{"description":"View or download bulletin PDF recommendations for the Seasonal and 10-Day Weather Outlook","url":"https://firebasestorage.googleapis.com/v0/b/amia-cis-dev.appspot.com/o/media%2Fimages%2Fopengraph%2F1200x600%2Fog_bulletins_1200.png?alt=media&token=d576f8fc-ae6d-43bf-a079-bd2fb68717dc","path":"https://amia-cis.github.io/bulletins"}},"__N_SSG":true}