{"pageProps":{"villages":[{"barangay":"Alas","province":"Masbate","lat":"12.261882","association":"Alas Farmers Association","municipality":"Mandaon","lon":"123.343322"},{"municipality":"Capalonga","lat":"14.283999","association":"Cabibiroc-Alayao Farmers Association (CAFA)","barangay":"Alayao","province":"Camarines Norte","lon":"122.557276"},{"lon":"124.362139","municipality":"Gigmoto","province":"Catanduanes","barangay":"Biong","association":"Biong Farmers Association","lat":"13.77147"},{"province":"Camarines Sur","lat":"13.63714","municipality":"Pamplona","barangay":"Cagbunga","lon":"123.106714","association":"Cagbunga Riverside Farmers Organization"},{"province":"Sorsogon","lon":"123.786951","municipality":"Castilla","association":"Dinapa Farmers Association","barangay":"Dinapa","lat":"12.908257"},{"association":"Joroan Farmers and Fisherfollks Association","lon":"123.620308","province":"Albay","lat":"13.489628","barangay":"Joroan","municipality":"Tiwi"},{"lat":"14.269422","association":"Paracale Corn and Cassava Farmers Association","lon":"122.820835","barangay":"Labnig","province":"Camarines Norte","municipality":"Paracale"},{"association":"AMIA (Asenso Marigondon Irrigators Association)","municipality":"Pio Duran","lat":"13.054393","barangay":"Marigondon","province":"Albay","lon":"123.431072"},{"lon":"124.319818","municipality":"Viga","association":"Peñafrancia Farmers and Fisherfolks Association","province":"Catanduanes","lat":"13.885986","barangay":"Peñafrancia"},{"lat":"12.193129","barangay":"Quezon","province":"Masbate","association":" Quezon Small Farmers Association MaQueba (Magsaysay,Quezon and Badling","municipality":"Uson","lon":"123.801844"},{"lon":"124.172603","association":"San Isidro Farmers Association","province":"Sorsogon","municipality":"Prieto Diaz","barangay":"San Isidro","lat":"13.028927"},{"lon":"123.817117","barangay":"San Mateo","association":"San Mateo Farmers Association","province":"Masbate","lat":"12.190327","municipality":"Uson"},{"lat":"13.567574","municipality":"Pamplona","lon":"123.046109","province":"Camarines Sur","barangay":"Tampadong","association":"TARBA (Tampadong Agrarian Reform Beneficiaries Association)"},{"association":" VEVUFAI (Veneracion Urban Farmers Assocaition,Inc.)","lon":"123.062039","barangay":"Veneracion","province":"Camarines Sur","lat":"13.555508","municipality":"Pamplona"}],"media":["https://firebasestorage.googleapis.com/v0/b/amia-cis-dev.appspot.com/o/media%2Fimages%2Fgallery%2Fth_clouds.png?alt=media&token=be6d403d-c2d7-4970-9be8-caa1ec484dd2","https://firebasestorage.googleapis.com/v0/b/amia-cis-dev.appspot.com/o/media%2Fimages%2Fgallery%2Fth_seasonal.png?alt=media&token=884f1234-bfc5-4927-91c7-006a90110a24","https://firebasestorage.googleapis.com/v0/b/amia-cis-dev.appspot.com/o/media%2Fimages%2Fgallery%2Fth_typhoon_03.png?alt=media&token=864f099e-29f8-4a17-b282-0af0c121254a"]},"__N_SSG":true}