{"pageProps":{"villages":[{"barangay":"Alas","lon":"123.343322","association":"Alas Farmers Association","municipality":"Mandaon","lat":"12.261882","province":"Masbate"},{"barangay":"Alayao","province":"Camarines Norte","municipality":"Capalonga","lat":"14.283999","association":"Cabibiroc-Alayao Farmers Association (CAFA)","lon":"122.557276"},{"lat":"13.77147","barangay":"Biong","municipality":"Gigmoto","lon":"124.362139","province":"Catanduanes","association":"Biong Farmers Association"},{"association":"Cagbunga Riverside Farmers Organization","barangay":"Cagbunga","lat":"13.63714","municipality":"Pamplona","lon":"123.106714","province":"Camarines Sur"},{"lat":"12.908257","municipality":"Castilla","lon":"123.786951","province":"Sorsogon","association":"Dinapa Farmers Association","barangay":"Dinapa"},{"municipality":"Tiwi","barangay":"Joroan","association":"Joroan Farmers and Fisherfollks Association","lat":"13.489628","lon":"123.620308","province":"Albay"},{"lon":"122.820835","municipality":"Paracale","lat":"14.269422","barangay":"Labnig","province":"Camarines Norte","association":"Paracale Corn and Cassava Farmers Association"},{"lon":"123.431072","barangay":"Marigondon","lat":"13.054393","municipality":"Pio Duran","province":"Albay","association":"AMIA (Asenso Marigondon Irrigators Association)"},{"association":"Peñafrancia Farmers and Fisherfolks Association","lon":"124.319818","barangay":"Peñafrancia","municipality":"Viga","province":"Catanduanes","lat":"13.885986"},{"municipality":"Uson","association":" Quezon Small Farmers Association MaQueba (Magsaysay,Quezon and Badling","province":"Masbate","lat":"12.193129","lon":"123.801844","barangay":"Quezon"},{"association":"San Isidro Farmers Association","lat":"13.028927","lon":"124.172603","municipality":"Prieto Diaz","province":"Sorsogon","barangay":"San Isidro"},{"municipality":"Uson","barangay":"San Mateo","association":"San Mateo Farmers Association","lat":"12.190327","lon":"123.817117","province":"Masbate"},{"municipality":"Pamplona","lon":"123.046109","association":"TARBA (Tampadong Agrarian Reform Beneficiaries Association)","barangay":"Tampadong","lat":"13.567574","province":"Camarines Sur"},{"barangay":"Veneracion","lon":"123.062039","province":"Camarines Sur","municipality":"Pamplona","lat":"13.555508","association":" VEVUFAI (Veneracion Urban Farmers Assocaition,Inc.)"}],"media":["https://firebasestorage.googleapis.com/v0/b/amia-cis-dev.appspot.com/o/media%2Fimages%2Fgallery%2Fth_clouds.png?alt=media&token=be6d403d-c2d7-4970-9be8-caa1ec484dd2","https://firebasestorage.googleapis.com/v0/b/amia-cis-dev.appspot.com/o/media%2Fimages%2Fgallery%2Fth_seasonal.png?alt=media&token=884f1234-bfc5-4927-91c7-006a90110a24","https://firebasestorage.googleapis.com/v0/b/amia-cis-dev.appspot.com/o/media%2Fimages%2Fgallery%2Fth_typhoon_03.png?alt=media&token=864f099e-29f8-4a17-b282-0af0c121254a"]},"__N_SSG":true}