{"pageProps":{"villages":[{"barangay":"Alas","lon":"123.343322","municipality":"Mandaon","province":"Masbate","association":"Alas Farmers Association","lat":"12.261882"},{"barangay":"Alayao","lon":"122.557276","province":"Camarines Norte","association":"Cabibiroc-Alayao Farmers Association (CAFA)","municipality":"Capalonga","lat":"14.283999"},{"municipality":"Gigmoto","barangay":"Biong","lat":"13.77147","province":"Catanduanes","association":"Biong Farmers Association","lon":"124.362139"},{"province":"Camarines Sur","municipality":"Pamplona","lon":"123.106714","association":"Cagbunga Riverside Farmers Organization","barangay":"Cagbunga","lat":"13.63714"},{"barangay":"Dinapa","lon":"123.786951","association":"Dinapa Farmers Association","lat":"12.908257","province":"Sorsogon","municipality":"Castilla"},{"lat":"13.489628","municipality":"Tiwi","lon":"123.620308","province":"Albay","association":"Joroan Farmers and Fisherfollks Association","barangay":"Joroan"},{"municipality":"Paracale","association":"Paracale Corn and Cassava Farmers Association","lon":"122.820835","barangay":"Labnig","lat":"14.269422","province":"Camarines Norte"},{"lat":"13.054393","municipality":"Pio Duran","lon":"123.431072","association":"AMIA (Asenso Marigondon Irrigators Association)","barangay":"Marigondon","province":"Albay"},{"lat":"13.885986","association":"Peñafrancia Farmers and Fisherfolks Association","barangay":"Peñafrancia","province":"Catanduanes","municipality":"Viga","lon":"124.319818"},{"barangay":"Quezon","association":" Quezon Small Farmers Association MaQueba (Magsaysay,Quezon and Badling","municipality":"Uson","lon":"123.801844","lat":"12.193129","province":"Masbate"},{"municipality":"Prieto Diaz","lat":"13.028927","association":"San Isidro Farmers Association","province":"Sorsogon","lon":"124.172603","barangay":"San Isidro"},{"municipality":"Uson","province":"Masbate","lon":"123.817117","association":"San Mateo Farmers Association","lat":"12.190327","barangay":"San Mateo"},{"barangay":"Tampadong","lon":"123.046109","province":"Camarines Sur","municipality":"Pamplona","association":"TARBA (Tampadong Agrarian Reform Beneficiaries Association)","lat":"13.567574"},{"association":" VEVUFAI (Veneracion Urban Farmers Assocaition,Inc.)","lon":"123.062039","province":"Camarines Sur","lat":"13.555508","barangay":"Veneracion","municipality":"Pamplona"}]},"__N_SSG":true}