{"pageProps":{"villages":[{"barangay":"Alas","province":"Masbate","lat":"12.261882","association":"Alas Farmers Association","lon":"123.343322","municipality":"Mandaon"},{"association":"Cabibiroc-Alayao Farmers Association (CAFA)","municipality":"Capalonga","lon":"122.557276","lat":"14.283999","province":"Camarines Norte","barangay":"Alayao"},{"lat":"13.77147","province":"Catanduanes","lon":"124.362139","municipality":"Gigmoto","association":"Biong Farmers Association","barangay":"Biong"},{"association":"Cagbunga Riverside Farmers Organization","municipality":"Pamplona","lon":"123.106714","lat":"13.63714","province":"Camarines Sur","barangay":"Cagbunga"},{"lon":"123.786951","lat":"12.908257","barangay":"Dinapa","province":"Sorsogon","association":"Dinapa Farmers Association","municipality":"Castilla"},{"province":"Albay","association":"Joroan Farmers and Fisherfollks Association","lon":"123.620308","municipality":"Tiwi","lat":"13.489628","barangay":"Joroan"},{"municipality":"Paracale","lat":"14.269422","barangay":"Labnig","association":"Paracale Corn and Cassava Farmers Association","province":"Camarines Norte","lon":"122.820835"},{"lat":"13.054393","association":"AMIA (Asenso Marigondon Irrigators Association)","province":"Albay","lon":"123.431072","municipality":"Pio Duran","barangay":"Marigondon"},{"barangay":"Peñafrancia","lon":"124.319818","province":"Catanduanes","association":"Peñafrancia Farmers and Fisherfolks Association","municipality":"Viga","lat":"13.885986"},{"lat":"12.193129","association":" Quezon Small Farmers Association MaQueba (Magsaysay,Quezon and Badling","lon":"123.801844","barangay":"Quezon","province":"Masbate","municipality":"Uson"},{"lon":"124.172603","lat":"13.028927","municipality":"Prieto Diaz","barangay":"San Isidro","association":"San Isidro Farmers Association","province":"Sorsogon"},{"lat":"12.190327","municipality":"Uson","lon":"123.817117","barangay":"San Mateo","association":"San Mateo Farmers Association","province":"Masbate"},{"barangay":"Tampadong","lat":"13.567574","municipality":"Pamplona","province":"Camarines Sur","association":"TARBA (Tampadong Agrarian Reform Beneficiaries Association)","lon":"123.046109"},{"municipality":"Pamplona","province":"Camarines Sur","association":" VEVUFAI (Veneracion Urban Farmers Assocaition,Inc.)","lat":"13.555508","barangay":"Veneracion","lon":"123.062039"}]},"__N_SSG":true}