{"pageProps":{"villages":[{"barangay":"Alas","municipality":"Mandaon","lon":"123.343322","province":"Masbate","lat":"12.261882","association":"Alas Farmers Association"},{"municipality":"Capalonga","lat":"14.283999","province":"Camarines Norte","barangay":"Alayao","association":"Cabibiroc-Alayao Farmers Association (CAFA)","lon":"122.557276"},{"association":"Biong Farmers Association","lon":"124.362139","barangay":"Biong","municipality":"Gigmoto","lat":"13.77147","province":"Catanduanes"},{"lon":"123.106714","lat":"13.63714","municipality":"Pamplona","association":"Cagbunga Riverside Farmers Organization","barangay":"Cagbunga","province":"Camarines Sur"},{"barangay":"Dinapa","municipality":"Castilla","province":"Sorsogon","lon":"123.786951","lat":"12.908257","association":"Dinapa Farmers Association"},{"lat":"13.489628","municipality":"Tiwi","barangay":"Joroan","province":"Albay","association":"Joroan Farmers and Fisherfollks Association","lon":"123.620308"},{"association":"Paracale Corn and Cassava Farmers Association","lon":"122.820835","lat":"14.269422","barangay":"Labnig","province":"Camarines Norte","municipality":"Paracale"},{"lon":"123.431072","association":"AMIA (Asenso Marigondon Irrigators Association)","province":"Albay","municipality":"Pio Duran","lat":"13.054393","barangay":"Marigondon"},{"municipality":"Viga","lon":"124.319818","lat":"13.885986","association":"Peñafrancia Farmers and Fisherfolks Association","barangay":"Peñafrancia","province":"Catanduanes"},{"lon":"123.801844","municipality":"Uson","barangay":"Quezon","province":"Masbate","lat":"12.193129","association":" Quezon Small Farmers Association MaQueba (Magsaysay,Quezon and Badling"},{"municipality":"Prieto Diaz","lat":"13.028927","province":"Sorsogon","barangay":"San Isidro","lon":"124.172603","association":"San Isidro Farmers Association"},{"lat":"12.190327","barangay":"San Mateo","association":"San Mateo Farmers Association","municipality":"Uson","province":"Masbate","lon":"123.817117"},{"province":"Camarines Sur","lat":"13.567574","lon":"123.046109","barangay":"Tampadong","municipality":"Pamplona","association":"TARBA (Tampadong Agrarian Reform Beneficiaries Association)"},{"municipality":"Pamplona","lat":"13.555508","barangay":"Veneracion","province":"Camarines Sur","lon":"123.062039","association":" VEVUFAI (Veneracion Urban Farmers Assocaition,Inc.)"}]},"__N_SSG":true}