{"pageProps":{"villages":[{"barangay":"Alas","province":"Masbate","lat":"12.261882","municipality":"Mandaon","association":"Alas Farmers Association","lon":"123.343322"},{"association":"Cabibiroc-Alayao Farmers Association (CAFA)","province":"Camarines Norte","barangay":"Alayao","lat":"14.283999","lon":"122.557276","municipality":"Capalonga"},{"lat":"13.77147","barangay":"Biong","lon":"124.362139","municipality":"Gigmoto","province":"Catanduanes","association":"Biong Farmers Association"},{"municipality":"Pamplona","lon":"123.106714","barangay":"Cagbunga","lat":"13.63714","association":"Cagbunga Riverside Farmers Organization","province":"Camarines Sur"},{"association":"Dinapa Farmers Association","barangay":"Dinapa","lon":"123.786951","municipality":"Castilla","lat":"12.908257","province":"Sorsogon"},{"lon":"123.620308","association":"Joroan Farmers and Fisherfollks Association","barangay":"Joroan","municipality":"Tiwi","province":"Albay","lat":"13.489628"},{"municipality":"Paracale","lat":"14.269422","province":"Camarines Norte","lon":"122.820835","association":"Paracale Corn and Cassava Farmers Association","barangay":"Labnig"},{"municipality":"Pio Duran","lat":"13.054393","barangay":"Marigondon","association":"AMIA (Asenso Marigondon Irrigators Association)","province":"Albay","lon":"123.431072"},{"municipality":"Viga","province":"Catanduanes","association":"Peñafrancia Farmers and Fisherfolks Association","lat":"13.885986","barangay":"Peñafrancia","lon":"124.319818"},{"association":" Quezon Small Farmers Association MaQueba (Magsaysay,Quezon and Badling","lat":"12.193129","province":"Masbate","barangay":"Quezon","lon":"123.801844","municipality":"Uson"},{"lat":"13.028927","association":"San Isidro Farmers Association","municipality":"Prieto Diaz","lon":"124.172603","barangay":"San Isidro","province":"Sorsogon"},{"province":"Masbate","municipality":"Uson","association":"San Mateo Farmers Association","lon":"123.817117","lat":"12.190327","barangay":"San Mateo"},{"barangay":"Tampadong","municipality":"Pamplona","lat":"13.567574","association":"TARBA (Tampadong Agrarian Reform Beneficiaries Association)","lon":"123.046109","province":"Camarines Sur"},{"lat":"13.555508","association":" VEVUFAI (Veneracion Urban Farmers Assocaition,Inc.)","lon":"123.062039","barangay":"Veneracion","municipality":"Pamplona","province":"Camarines Sur"}]},"__N_SSG":true}