{"pageProps":{"villages":[{"lat":"12.261882","lon":"123.343322","municipality":"Mandaon","province":"Masbate","association":"Alas Farmers Association","barangay":"Alas"},{"lon":"122.557276","lat":"14.283999","association":"Cabibiroc-Alayao Farmers Association (CAFA)","municipality":"Capalonga","barangay":"Alayao","province":"Camarines Norte"},{"barangay":"Biong","association":"Biong Farmers Association","province":"Catanduanes","municipality":"Gigmoto","lat":"13.77147","lon":"124.362139"},{"lat":"13.63714","municipality":"Pamplona","lon":"123.106714","association":"Cagbunga Riverside Farmers Organization","barangay":"Cagbunga","province":"Camarines Sur"},{"lon":"123.786951","municipality":"Castilla","province":"Sorsogon","association":"Dinapa Farmers Association","barangay":"Dinapa","lat":"12.908257"},{"lon":"123.620308","association":"Joroan Farmers and Fisherfollks Association","barangay":"Joroan","lat":"13.489628","municipality":"Tiwi","province":"Albay"},{"barangay":"Labnig","lon":"122.820835","lat":"14.269422","municipality":"Paracale","province":"Camarines Norte","association":"Paracale Corn and Cassava Farmers Association"},{"barangay":"Marigondon","lon":"123.431072","province":"Albay","lat":"13.054393","municipality":"Pio Duran","association":"AMIA (Asenso Marigondon Irrigators Association)"},{"municipality":"Viga","province":"Catanduanes","barangay":"Peñafrancia","lat":"13.885986","association":"Peñafrancia Farmers and Fisherfolks Association","lon":"124.319818"},{"province":"Masbate","lat":"12.193129","association":" Quezon Small Farmers Association MaQueba (Magsaysay,Quezon and Badling","lon":"123.801844","barangay":"Quezon","municipality":"Uson"},{"province":"Sorsogon","barangay":"San Isidro","association":"San Isidro Farmers Association","municipality":"Prieto Diaz","lon":"124.172603","lat":"13.028927"},{"barangay":"San Mateo","municipality":"Uson","province":"Masbate","association":"San Mateo Farmers Association","lon":"123.817117","lat":"12.190327"},{"lon":"123.046109","province":"Camarines Sur","municipality":"Pamplona","lat":"13.567574","barangay":"Tampadong","association":"TARBA (Tampadong Agrarian Reform Beneficiaries Association)"},{"municipality":"Pamplona","lat":"13.555508","association":" VEVUFAI (Veneracion Urban Farmers Assocaition,Inc.)","lon":"123.062039","province":"Camarines Sur","barangay":"Veneracion"}],"media":{"description":"Agro-Climatic Advisory Portal-Bicol (ACAP-BICOL) serves as a centralized hub for the development of Climate Information Services (CIS) in the Bicol Region. It contains relevant weather and climate information which can be used in developing tailored advisories and crop recommendations.","url":"https://firebasestorage.googleapis.com/v0/b/amia-cis-dev.appspot.com/o/media%2Fimages%2Fopengraph%2F1200x600%2Fog_home_1200.png?alt=media&token=51f9241c-45da-456e-9906-677c2f8fe93a","path":"https://amia-cis.github.io"}},"__N_SSG":true}