{"pageProps":{"villages":[{"province":"Masbate","municipality":"Mandaon","lat":"12.261882","association":"Alas Farmers Association","barangay":"Alas","lon":"123.343322"},{"province":"Camarines Norte","municipality":"Capalonga","association":"Cabibiroc-Alayao Farmers Association (CAFA)","lat":"14.283999","lon":"122.557276","barangay":"Alayao"},{"municipality":"Gigmoto","province":"Catanduanes","lon":"124.362139","association":"Biong Farmers Association","barangay":"Biong","lat":"13.77147"},{"municipality":"Pamplona","province":"Camarines Sur","lat":"13.63714","lon":"123.106714","barangay":"Cagbunga","association":"Cagbunga Riverside Farmers Organization"},{"municipality":"Castilla","barangay":"Dinapa","association":"Dinapa Farmers Association","province":"Sorsogon","lon":"123.786951","lat":"12.908257"},{"association":"Joroan Farmers and Fisherfollks Association","province":"Albay","lat":"13.489628","barangay":"Joroan","lon":"123.620308","municipality":"Tiwi"},{"barangay":"Labnig","lon":"122.820835","municipality":"Paracale","association":"Paracale Corn and Cassava Farmers Association","lat":"14.269422","province":"Camarines Norte"},{"association":"AMIA (Asenso Marigondon Irrigators Association)","province":"Albay","lat":"13.054393","lon":"123.431072","municipality":"Pio Duran","barangay":"Marigondon"},{"lon":"124.319818","municipality":"Viga","province":"Catanduanes","barangay":"Peñafrancia","lat":"13.885986","association":"Peñafrancia Farmers and Fisherfolks Association"},{"lon":"123.801844","province":"Masbate","lat":"12.193129","association":" Quezon Small Farmers Association MaQueba (Magsaysay,Quezon and Badling","barangay":"Quezon","municipality":"Uson"},{"lon":"124.172603","association":"San Isidro Farmers Association","province":"Sorsogon","lat":"13.028927","barangay":"San Isidro","municipality":"Prieto Diaz"},{"province":"Masbate","lat":"12.190327","lon":"123.817117","barangay":"San Mateo","municipality":"Uson","association":"San Mateo Farmers Association"},{"province":"Camarines Sur","lat":"13.567574","association":"TARBA (Tampadong Agrarian Reform Beneficiaries Association)","barangay":"Tampadong","municipality":"Pamplona","lon":"123.046109"},{"lat":"13.555508","province":"Camarines Sur","municipality":"Pamplona","lon":"123.062039","barangay":"Veneracion","association":" VEVUFAI (Veneracion Urban Farmers Assocaition,Inc.)"}],"media":["https://firebasestorage.googleapis.com/v0/b/amia-cis-dev.appspot.com/o/media%2Fimages%2Fgallery%2Fth_clouds.png?alt=media&token=be6d403d-c2d7-4970-9be8-caa1ec484dd2","https://firebasestorage.googleapis.com/v0/b/amia-cis-dev.appspot.com/o/media%2Fimages%2Fgallery%2Fth_seasonal.png?alt=media&token=884f1234-bfc5-4927-91c7-006a90110a24","https://firebasestorage.googleapis.com/v0/b/amia-cis-dev.appspot.com/o/media%2Fimages%2Fgallery%2Fth_typhoon_03.png?alt=media&token=864f099e-29f8-4a17-b282-0af0c121254a"]},"__N_SSG":true}