{"pageProps":{"villages":[{"lat":"12.261882","municipality":"Mandaon","association":"Alas Farmers Association","province":"Masbate","barangay":"Alas","lon":"123.343322"},{"province":"Camarines Norte","association":"Cabibiroc-Alayao Farmers Association (CAFA)","lat":"14.283999","barangay":"Alayao","municipality":"Capalonga","lon":"122.557276"},{"association":"Biong Farmers Association","lon":"124.362139","barangay":"Biong","municipality":"Gigmoto","lat":"13.77147","province":"Catanduanes"},{"lat":"13.63714","lon":"123.106714","barangay":"Cagbunga","province":"Camarines Sur","municipality":"Pamplona","association":"Cagbunga Riverside Farmers Organization"},{"barangay":"Dinapa","lat":"12.908257","lon":"123.786951","association":"Dinapa Farmers Association","province":"Sorsogon","municipality":"Castilla"},{"province":"Albay","municipality":"Tiwi","lon":"123.620308","barangay":"Joroan","association":"Joroan Farmers and Fisherfollks Association","lat":"13.489628"},{"lat":"14.269422","barangay":"Labnig","municipality":"Paracale","lon":"122.820835","association":"Paracale Corn and Cassava Farmers Association","province":"Camarines Norte"},{"province":"Albay","association":"AMIA (Asenso Marigondon Irrigators Association)","lon":"123.431072","lat":"13.054393","municipality":"Pio Duran","barangay":"Marigondon"},{"municipality":"Viga","lon":"124.319818","lat":"13.885986","association":"Peñafrancia Farmers and Fisherfolks Association","province":"Catanduanes","barangay":"Peñafrancia"},{"barangay":"Quezon","municipality":"Uson","province":"Masbate","lon":"123.801844","lat":"12.193129","association":" Quezon Small Farmers Association MaQueba (Magsaysay,Quezon and Badling"},{"province":"Sorsogon","association":"San Isidro Farmers Association","lat":"13.028927","lon":"124.172603","barangay":"San Isidro","municipality":"Prieto Diaz"},{"lon":"123.817117","province":"Masbate","barangay":"San Mateo","municipality":"Uson","lat":"12.190327","association":"San Mateo Farmers Association"},{"barangay":"Tampadong","lat":"13.567574","province":"Camarines Sur","association":"TARBA (Tampadong Agrarian Reform Beneficiaries Association)","municipality":"Pamplona","lon":"123.046109"},{"lat":"13.555508","barangay":"Veneracion","association":" VEVUFAI (Veneracion Urban Farmers Assocaition,Inc.)","lon":"123.062039","province":"Camarines Sur","municipality":"Pamplona"}],"media":{"description":"Download Special Weather Forecast PDF bulletins.","url":"https://firebasestorage.googleapis.com/v0/b/amia-cis-dev.appspot.com/o/media%2Fimages%2Fopengraph%2F1200x600%2Fog_bulletins_typhoon.png?alt=media&token=2b5a0bba-0272-463e-aed3-1d0fc975646f","path":"https://amia-cis.github.io/bulletins/special-weather-forecast"}},"__N_SSG":true}