{"pageProps":{"villages":[{"municipality":"Mandaon","province":"Masbate","lat":"12.261882","barangay":"Alas","association":"Alas Farmers Association","lon":"123.343322"},{"lat":"14.283999","province":"Camarines Norte","barangay":"Alayao","association":"Cabibiroc-Alayao Farmers Association (CAFA)","lon":"122.557276","municipality":"Capalonga"},{"province":"Catanduanes","municipality":"Gigmoto","lat":"13.77147","lon":"124.362139","association":"Biong Farmers Association","barangay":"Biong"},{"barangay":"Cagbunga","province":"Camarines Sur","lon":"123.106714","municipality":"Pamplona","lat":"13.63714","association":"Cagbunga Riverside Farmers Organization"},{"lat":"12.908257","municipality":"Castilla","association":"Dinapa Farmers Association","barangay":"Dinapa","province":"Sorsogon","lon":"123.786951"},{"province":"Albay","barangay":"Joroan","lon":"123.620308","municipality":"Tiwi","association":"Joroan Farmers and Fisherfollks Association","lat":"13.489628"},{"municipality":"Paracale","barangay":"Labnig","province":"Camarines Norte","lon":"122.820835","association":"Paracale Corn and Cassava Farmers Association","lat":"14.269422"},{"municipality":"Pio Duran","lon":"123.431072","association":"AMIA (Asenso Marigondon Irrigators Association)","barangay":"Marigondon","province":"Albay","lat":"13.054393"},{"barangay":"Peñafrancia","lon":"124.319818","lat":"13.885986","association":"Peñafrancia Farmers and Fisherfolks Association","province":"Catanduanes","municipality":"Viga"},{"municipality":"Uson","association":" Quezon Small Farmers Association MaQueba (Magsaysay,Quezon and Badling","province":"Masbate","lon":"123.801844","barangay":"Quezon","lat":"12.193129"},{"province":"Sorsogon","lon":"124.172603","lat":"13.028927","barangay":"San Isidro","association":"San Isidro Farmers Association","municipality":"Prieto Diaz"},{"province":"Masbate","lon":"123.817117","barangay":"San Mateo","lat":"12.190327","association":"San Mateo Farmers Association","municipality":"Uson"},{"association":"TARBA (Tampadong Agrarian Reform Beneficiaries Association)","province":"Camarines Sur","lon":"123.046109","barangay":"Tampadong","lat":"13.567574","municipality":"Pamplona"},{"association":" VEVUFAI (Veneracion Urban Farmers Assocaition,Inc.)","lon":"123.062039","lat":"13.555508","municipality":"Pamplona","province":"Camarines Sur","barangay":"Veneracion"}],"media":{"description":"Download 10-Day Farm Weather Outlook PDF bulletins.","url":"https://firebasestorage.googleapis.com/v0/b/amia-cis-dev.appspot.com/o/media%2Fimages%2Fopengraph%2F1200x600%2Fog_bulletins_10day.png?alt=media&token=bb3599af-0756-4c3b-8f02-04397e388125","path":"https://amia-cis.github.io/bulletins/weather"}},"__N_SSG":true}