{"pageProps":{"villages":[{"barangay":"Alas","province":"Masbate","association":"Alas Farmers Association","lon":"123.343322","lat":"12.261882","municipality":"Mandaon"},{"barangay":"Alayao","municipality":"Capalonga","lat":"14.283999","province":"Camarines Norte","lon":"122.557276","association":"Cabibiroc-Alayao Farmers Association (CAFA)"},{"lat":"13.77147","association":"Biong Farmers Association","municipality":"Gigmoto","barangay":"Biong","province":"Catanduanes","lon":"124.362139"},{"lon":"123.106714","municipality":"Pamplona","association":"Cagbunga Riverside Farmers Organization","lat":"13.63714","barangay":"Cagbunga","province":"Camarines Sur"},{"lon":"123.786951","province":"Sorsogon","municipality":"Castilla","barangay":"Dinapa","association":"Dinapa Farmers Association","lat":"12.908257"},{"association":"Joroan Farmers and Fisherfollks Association","province":"Albay","barangay":"Joroan","lat":"13.489628","lon":"123.620308","municipality":"Tiwi"},{"province":"Camarines Norte","municipality":"Paracale","lat":"14.269422","association":"Paracale Corn and Cassava Farmers Association","barangay":"Labnig","lon":"122.820835"},{"municipality":"Pio Duran","province":"Albay","lon":"123.431072","barangay":"Marigondon","association":"AMIA (Asenso Marigondon Irrigators Association)","lat":"13.054393"},{"province":"Catanduanes","municipality":"Viga","lat":"13.885986","barangay":"Peñafrancia","lon":"124.319818","association":"Peñafrancia Farmers and Fisherfolks Association"},{"municipality":"Uson","province":"Masbate","lon":"123.801844","lat":"12.193129","barangay":"Quezon","association":" Quezon Small Farmers Association MaQueba (Magsaysay,Quezon and Badling"},{"barangay":"San Isidro","municipality":"Prieto Diaz","lat":"13.028927","province":"Sorsogon","lon":"124.172603","association":"San Isidro Farmers Association"},{"association":"San Mateo Farmers Association","municipality":"Uson","lat":"12.190327","barangay":"San Mateo","lon":"123.817117","province":"Masbate"},{"lon":"123.046109","municipality":"Pamplona","province":"Camarines Sur","association":"TARBA (Tampadong Agrarian Reform Beneficiaries Association)","barangay":"Tampadong","lat":"13.567574"},{"barangay":"Veneracion","province":"Camarines Sur","lat":"13.555508","municipality":"Pamplona","lon":"123.062039","association":" VEVUFAI (Veneracion Urban Farmers Assocaition,Inc.)"}]},"__N_SSG":true}