{"pageProps":{"villages":[{"municipality":"Mandaon","lon":"123.343322","lat":"12.261882","association":"Alas Farmers Association","barangay":"Alas","province":"Masbate"},{"municipality":"Capalonga","province":"Camarines Norte","association":"Cabibiroc-Alayao Farmers Association (CAFA)","lon":"122.557276","barangay":"Alayao","lat":"14.283999"},{"association":"Biong Farmers Association","barangay":"Biong","municipality":"Gigmoto","lat":"13.77147","lon":"124.362139","province":"Catanduanes"},{"municipality":"Pamplona","barangay":"Cagbunga","association":"Cagbunga Riverside Farmers Organization","lon":"123.106714","lat":"13.63714","province":"Camarines Sur"},{"barangay":"Dinapa","association":"Dinapa Farmers Association","lat":"12.908257","lon":"123.786951","province":"Sorsogon","municipality":"Castilla"},{"province":"Albay","barangay":"Joroan","lon":"123.620308","municipality":"Tiwi","lat":"13.489628","association":"Joroan Farmers and Fisherfollks Association"},{"municipality":"Paracale","barangay":"Labnig","lat":"14.269422","association":"Paracale Corn and Cassava Farmers Association","lon":"122.820835","province":"Camarines Norte"},{"lat":"13.054393","lon":"123.431072","province":"Albay","municipality":"Pio Duran","barangay":"Marigondon","association":"AMIA (Asenso Marigondon Irrigators Association)"},{"barangay":"Peñafrancia","association":"Peñafrancia Farmers and Fisherfolks Association","lat":"13.885986","municipality":"Viga","lon":"124.319818","province":"Catanduanes"},{"lon":"123.801844","association":" Quezon Small Farmers Association MaQueba (Magsaysay,Quezon and Badling","lat":"12.193129","province":"Masbate","municipality":"Uson","barangay":"Quezon"},{"province":"Sorsogon","municipality":"Prieto Diaz","lat":"13.028927","association":"San Isidro Farmers Association","barangay":"San Isidro","lon":"124.172603"},{"municipality":"Uson","lon":"123.817117","lat":"12.190327","barangay":"San Mateo","association":"San Mateo Farmers Association","province":"Masbate"},{"province":"Camarines Sur","lat":"13.567574","lon":"123.046109","municipality":"Pamplona","association":"TARBA (Tampadong Agrarian Reform Beneficiaries Association)","barangay":"Tampadong"},{"lat":"13.555508","province":"Camarines Sur","lon":"123.062039","barangay":"Veneracion","municipality":"Pamplona","association":" VEVUFAI (Veneracion Urban Farmers Assocaition,Inc.)"}],"media":["https://firebasestorage.googleapis.com/v0/b/amia-cis-dev.appspot.com/o/media%2Fimages%2Fgallery%2Fth_clouds.png?alt=media&token=be6d403d-c2d7-4970-9be8-caa1ec484dd2","https://firebasestorage.googleapis.com/v0/b/amia-cis-dev.appspot.com/o/media%2Fimages%2Fgallery%2Fth_seasonal.png?alt=media&token=884f1234-bfc5-4927-91c7-006a90110a24","https://firebasestorage.googleapis.com/v0/b/amia-cis-dev.appspot.com/o/media%2Fimages%2Fgallery%2Fth_typhoon_03.png?alt=media&token=864f099e-29f8-4a17-b282-0af0c121254a"]},"__N_SSG":true}