{"pageProps":{"villages":[{"province":"Masbate","municipality":"Mandaon","lat":"12.261882","barangay":"Alas","lon":"123.343322","association":"Alas Farmers Association"},{"lon":"122.557276","lat":"14.283999","association":"Cabibiroc-Alayao Farmers Association (CAFA)","province":"Camarines Norte","municipality":"Capalonga","barangay":"Alayao"},{"association":"Biong Farmers Association","barangay":"Biong","lon":"124.362139","lat":"13.77147","province":"Catanduanes","municipality":"Gigmoto"},{"lat":"13.63714","barangay":"Cagbunga","association":"Cagbunga Riverside Farmers Organization","lon":"123.106714","province":"Camarines Sur","municipality":"Pamplona"},{"association":"Dinapa Farmers Association","barangay":"Dinapa","lat":"12.908257","province":"Sorsogon","municipality":"Castilla","lon":"123.786951"},{"association":"Joroan Farmers and Fisherfollks Association","province":"Albay","lat":"13.489628","municipality":"Tiwi","lon":"123.620308","barangay":"Joroan"},{"province":"Camarines Norte","lon":"122.820835","barangay":"Labnig","municipality":"Paracale","lat":"14.269422","association":"Paracale Corn and Cassava Farmers Association"},{"association":"AMIA (Asenso Marigondon Irrigators Association)","municipality":"Pio Duran","barangay":"Marigondon","lat":"13.054393","province":"Albay","lon":"123.431072"},{"lon":"124.319818","province":"Catanduanes","municipality":"Viga","association":"Peñafrancia Farmers and Fisherfolks Association","lat":"13.885986","barangay":"Peñafrancia"},{"lon":"123.801844","lat":"12.193129","association":" Quezon Small Farmers Association MaQueba (Magsaysay,Quezon and Badling","municipality":"Uson","barangay":"Quezon","province":"Masbate"},{"province":"Sorsogon","lat":"13.028927","barangay":"San Isidro","association":"San Isidro Farmers Association","municipality":"Prieto Diaz","lon":"124.172603"},{"municipality":"Uson","province":"Masbate","association":"San Mateo Farmers Association","lon":"123.817117","lat":"12.190327","barangay":"San Mateo"},{"municipality":"Pamplona","association":"TARBA (Tampadong Agrarian Reform Beneficiaries Association)","lon":"123.046109","province":"Camarines Sur","lat":"13.567574","barangay":"Tampadong"},{"province":"Camarines Sur","lon":"123.062039","lat":"13.555508","barangay":"Veneracion","association":" VEVUFAI (Veneracion Urban Farmers Assocaition,Inc.)","municipality":"Pamplona"}],"media":["https://firebasestorage.googleapis.com/v0/b/amia-cis-dev.appspot.com/o/media%2Fimages%2Fgallery%2Fth_clouds.png?alt=media&token=be6d403d-c2d7-4970-9be8-caa1ec484dd2","https://firebasestorage.googleapis.com/v0/b/amia-cis-dev.appspot.com/o/media%2Fimages%2Fgallery%2Fth_seasonal.png?alt=media&token=884f1234-bfc5-4927-91c7-006a90110a24","https://firebasestorage.googleapis.com/v0/b/amia-cis-dev.appspot.com/o/media%2Fimages%2Fgallery%2Fth_typhoon_03.png?alt=media&token=864f099e-29f8-4a17-b282-0af0c121254a"]},"__N_SSG":true}