{"pageProps":{"villages":[{"lat":"12.261882","municipality":"Mandaon","barangay":"Alas","association":"Alas Farmers Association","lon":"123.343322","province":"Masbate"},{"municipality":"Capalonga","lon":"122.557276","lat":"14.283999","barangay":"Alayao","association":"Cabibiroc-Alayao Farmers Association (CAFA)","province":"Camarines Norte"},{"lat":"13.77147","municipality":"Gigmoto","association":"Biong Farmers Association","barangay":"Biong","province":"Catanduanes","lon":"124.362139"},{"municipality":"Pamplona","barangay":"Cagbunga","lat":"13.63714","province":"Camarines Sur","association":"Cagbunga Riverside Farmers Organization","lon":"123.106714"},{"lat":"12.908257","municipality":"Castilla","province":"Sorsogon","lon":"123.786951","association":"Dinapa Farmers Association","barangay":"Dinapa"},{"lon":"123.620308","municipality":"Tiwi","lat":"13.489628","barangay":"Joroan","association":"Joroan Farmers and Fisherfollks Association","province":"Albay"},{"lat":"14.269422","barangay":"Labnig","lon":"122.820835","association":"Paracale Corn and Cassava Farmers Association","province":"Camarines Norte","municipality":"Paracale"},{"municipality":"Pio Duran","lon":"123.431072","lat":"13.054393","province":"Albay","barangay":"Marigondon","association":"AMIA (Asenso Marigondon Irrigators Association)"},{"province":"Catanduanes","association":"Peñafrancia Farmers and Fisherfolks Association","municipality":"Viga","lon":"124.319818","lat":"13.885986","barangay":"Peñafrancia"},{"lon":"123.801844","province":"Masbate","barangay":"Quezon","association":" Quezon Small Farmers Association MaQueba (Magsaysay,Quezon and Badling","lat":"12.193129","municipality":"Uson"},{"lat":"13.028927","lon":"124.172603","province":"Sorsogon","barangay":"San Isidro","municipality":"Prieto Diaz","association":"San Isidro Farmers Association"},{"municipality":"Uson","lon":"123.817117","province":"Masbate","barangay":"San Mateo","lat":"12.190327","association":"San Mateo Farmers Association"},{"province":"Camarines Sur","barangay":"Tampadong","association":"TARBA (Tampadong Agrarian Reform Beneficiaries Association)","lat":"13.567574","municipality":"Pamplona","lon":"123.046109"},{"municipality":"Pamplona","lon":"123.062039","barangay":"Veneracion","lat":"13.555508","province":"Camarines Sur","association":" VEVUFAI (Veneracion Urban Farmers Assocaition,Inc.)"}]},"__N_SSG":true}