{"pageProps":{"villages":[{"province":"Masbate","barangay":"Alas","municipality":"Mandaon","lon":"123.343322","lat":"12.261882","association":"Alas Farmers Association"},{"lon":"122.557276","province":"Camarines Norte","lat":"14.283999","association":"Cabibiroc-Alayao Farmers Association (CAFA)","barangay":"Alayao","municipality":"Capalonga"},{"province":"Catanduanes","lat":"13.77147","association":"Biong Farmers Association","barangay":"Biong","lon":"124.362139","municipality":"Gigmoto"},{"barangay":"Cagbunga","lon":"123.106714","province":"Camarines Sur","association":"Cagbunga Riverside Farmers Organization","lat":"13.63714","municipality":"Pamplona"},{"lat":"12.908257","barangay":"Dinapa","province":"Sorsogon","association":"Dinapa Farmers Association","municipality":"Castilla","lon":"123.786951"},{"lat":"13.489628","association":"Joroan Farmers and Fisherfollks Association","municipality":"Tiwi","province":"Albay","lon":"123.620308","barangay":"Joroan"},{"association":"Paracale Corn and Cassava Farmers Association","municipality":"Paracale","barangay":"Labnig","province":"Camarines Norte","lat":"14.269422","lon":"122.820835"},{"lat":"13.054393","barangay":"Marigondon","lon":"123.431072","association":"AMIA (Asenso Marigondon Irrigators Association)","province":"Albay","municipality":"Pio Duran"},{"association":"Peñafrancia Farmers and Fisherfolks Association","barangay":"Peñafrancia","lon":"124.319818","lat":"13.885986","province":"Catanduanes","municipality":"Viga"},{"association":" Quezon Small Farmers Association MaQueba (Magsaysay,Quezon and Badling","lat":"12.193129","lon":"123.801844","province":"Masbate","municipality":"Uson","barangay":"Quezon"},{"province":"Sorsogon","municipality":"Prieto Diaz","lat":"13.028927","association":"San Isidro Farmers Association","lon":"124.172603","barangay":"San Isidro"},{"barangay":"San Mateo","lon":"123.817117","municipality":"Uson","association":"San Mateo Farmers Association","lat":"12.190327","province":"Masbate"},{"barangay":"Tampadong","lon":"123.046109","province":"Camarines Sur","association":"TARBA (Tampadong Agrarian Reform Beneficiaries Association)","lat":"13.567574","municipality":"Pamplona"},{"municipality":"Pamplona","province":"Camarines Sur","barangay":"Veneracion","association":" VEVUFAI (Veneracion Urban Farmers Assocaition,Inc.)","lon":"123.062039","lat":"13.555508"}]},"__N_SSG":true}