{"pageProps":{"villages":[{"barangay":"Alas","municipality":"Mandaon","province":"Masbate","lon":"123.343322","association":"Alas Farmers Association","lat":"12.261882"},{"province":"Camarines Norte","lat":"14.283999","barangay":"Alayao","association":"Cabibiroc-Alayao Farmers Association (CAFA)","lon":"122.557276","municipality":"Capalonga"},{"association":"Biong Farmers Association","lon":"124.362139","lat":"13.77147","barangay":"Biong","province":"Catanduanes","municipality":"Gigmoto"},{"lat":"13.63714","lon":"123.106714","municipality":"Pamplona","barangay":"Cagbunga","province":"Camarines Sur","association":"Cagbunga Riverside Farmers Organization"},{"association":"Dinapa Farmers Association","barangay":"Dinapa","province":"Sorsogon","lon":"123.786951","lat":"12.908257","municipality":"Castilla"},{"lon":"123.620308","barangay":"Joroan","association":"Joroan Farmers and Fisherfollks Association","lat":"13.489628","province":"Albay","municipality":"Tiwi"},{"association":"Paracale Corn and Cassava Farmers Association","lat":"14.269422","barangay":"Labnig","municipality":"Paracale","lon":"122.820835","province":"Camarines Norte"},{"barangay":"Marigondon","lon":"123.431072","municipality":"Pio Duran","province":"Albay","association":"AMIA (Asenso Marigondon Irrigators Association)","lat":"13.054393"},{"lon":"124.319818","lat":"13.885986","province":"Catanduanes","barangay":"Peñafrancia","municipality":"Viga","association":"Peñafrancia Farmers and Fisherfolks Association"},{"province":"Masbate","municipality":"Uson","lat":"12.193129","lon":"123.801844","barangay":"Quezon","association":" Quezon Small Farmers Association MaQueba (Magsaysay,Quezon and Badling"},{"barangay":"San Isidro","association":"San Isidro Farmers Association","municipality":"Prieto Diaz","lon":"124.172603","lat":"13.028927","province":"Sorsogon"},{"barangay":"San Mateo","lon":"123.817117","association":"San Mateo Farmers Association","province":"Masbate","lat":"12.190327","municipality":"Uson"},{"lon":"123.046109","barangay":"Tampadong","province":"Camarines Sur","lat":"13.567574","association":"TARBA (Tampadong Agrarian Reform Beneficiaries Association)","municipality":"Pamplona"},{"lat":"13.555508","lon":"123.062039","municipality":"Pamplona","association":" VEVUFAI (Veneracion Urban Farmers Assocaition,Inc.)","province":"Camarines Sur","barangay":"Veneracion"}]},"__N_SSG":true}