{"pageProps":{"villages":[{"lat":"12.261882","province":"Masbate","barangay":"Alas","lon":"123.343322","association":"Alas Farmers Association","municipality":"Mandaon"},{"association":"Cabibiroc-Alayao Farmers Association (CAFA)","barangay":"Alayao","province":"Camarines Norte","lat":"14.283999","lon":"122.557276","municipality":"Capalonga"},{"lat":"13.77147","province":"Catanduanes","association":"Biong Farmers Association","barangay":"Biong","municipality":"Gigmoto","lon":"124.362139"},{"municipality":"Pamplona","barangay":"Cagbunga","province":"Camarines Sur","lat":"13.63714","association":"Cagbunga Riverside Farmers Organization","lon":"123.106714"},{"barangay":"Dinapa","municipality":"Castilla","lat":"12.908257","association":"Dinapa Farmers Association","province":"Sorsogon","lon":"123.786951"},{"municipality":"Tiwi","association":"Joroan Farmers and Fisherfollks Association","province":"Albay","barangay":"Joroan","lat":"13.489628","lon":"123.620308"},{"barangay":"Labnig","municipality":"Paracale","lat":"14.269422","lon":"122.820835","province":"Camarines Norte","association":"Paracale Corn and Cassava Farmers Association"},{"lat":"13.054393","association":"AMIA (Asenso Marigondon Irrigators Association)","province":"Albay","municipality":"Pio Duran","lon":"123.431072","barangay":"Marigondon"},{"lat":"13.885986","barangay":"Peñafrancia","lon":"124.319818","municipality":"Viga","association":"Peñafrancia Farmers and Fisherfolks Association","province":"Catanduanes"},{"province":"Masbate","municipality":"Uson","lon":"123.801844","lat":"12.193129","association":" Quezon Small Farmers Association MaQueba (Magsaysay,Quezon and Badling","barangay":"Quezon"},{"municipality":"Prieto Diaz","lon":"124.172603","province":"Sorsogon","barangay":"San Isidro","lat":"13.028927","association":"San Isidro Farmers Association"},{"association":"San Mateo Farmers Association","lon":"123.817117","municipality":"Uson","lat":"12.190327","barangay":"San Mateo","province":"Masbate"},{"province":"Camarines Sur","lon":"123.046109","association":"TARBA (Tampadong Agrarian Reform Beneficiaries Association)","barangay":"Tampadong","lat":"13.567574","municipality":"Pamplona"},{"association":" VEVUFAI (Veneracion Urban Farmers Assocaition,Inc.)","lon":"123.062039","lat":"13.555508","barangay":"Veneracion","province":"Camarines Sur","municipality":"Pamplona"}],"media":["https://firebasestorage.googleapis.com/v0/b/amia-cis-dev.appspot.com/o/media%2Fimages%2Fgallery%2Fth_clouds.png?alt=media&token=be6d403d-c2d7-4970-9be8-caa1ec484dd2","https://firebasestorage.googleapis.com/v0/b/amia-cis-dev.appspot.com/o/media%2Fimages%2Fgallery%2Fth_seasonal.png?alt=media&token=884f1234-bfc5-4927-91c7-006a90110a24","https://firebasestorage.googleapis.com/v0/b/amia-cis-dev.appspot.com/o/media%2Fimages%2Fgallery%2Fth_typhoon_03.png?alt=media&token=864f099e-29f8-4a17-b282-0af0c121254a"]},"__N_SSG":true}