{"pageProps":{"villages":[{"province":"Masbate","municipality":"Mandaon","association":"Alas Farmers Association","barangay":"Alas","lat":"12.261882","lon":"123.343322"},{"lon":"122.557276","municipality":"Capalonga","barangay":"Alayao","lat":"14.283999","association":"Cabibiroc-Alayao Farmers Association (CAFA)","province":"Camarines Norte"},{"municipality":"Gigmoto","association":"Biong Farmers Association","lon":"124.362139","barangay":"Biong","lat":"13.77147","province":"Catanduanes"},{"municipality":"Pamplona","lat":"13.63714","association":"Cagbunga Riverside Farmers Organization","barangay":"Cagbunga","lon":"123.106714","province":"Camarines Sur"},{"province":"Sorsogon","municipality":"Castilla","association":"Dinapa Farmers Association","lon":"123.786951","lat":"12.908257","barangay":"Dinapa"},{"association":"Joroan Farmers and Fisherfollks Association","lat":"13.489628","municipality":"Tiwi","province":"Albay","lon":"123.620308","barangay":"Joroan"},{"lon":"122.820835","association":"Paracale Corn and Cassava Farmers Association","province":"Camarines Norte","lat":"14.269422","barangay":"Labnig","municipality":"Paracale"},{"lat":"13.054393","barangay":"Marigondon","association":"AMIA (Asenso Marigondon Irrigators Association)","province":"Albay","municipality":"Pio Duran","lon":"123.431072"},{"barangay":"Peñafrancia","province":"Catanduanes","lat":"13.885986","municipality":"Viga","lon":"124.319818","association":"Peñafrancia Farmers and Fisherfolks Association"},{"province":"Masbate","lat":"12.193129","barangay":"Quezon","lon":"123.801844","municipality":"Uson","association":" Quezon Small Farmers Association MaQueba (Magsaysay,Quezon and Badling"},{"municipality":"Prieto Diaz","province":"Sorsogon","barangay":"San Isidro","lat":"13.028927","association":"San Isidro Farmers Association","lon":"124.172603"},{"barangay":"San Mateo","province":"Masbate","association":"San Mateo Farmers Association","municipality":"Uson","lat":"12.190327","lon":"123.817117"},{"lon":"123.046109","association":"TARBA (Tampadong Agrarian Reform Beneficiaries Association)","lat":"13.567574","municipality":"Pamplona","barangay":"Tampadong","province":"Camarines Sur"},{"lat":"13.555508","province":"Camarines Sur","lon":"123.062039","municipality":"Pamplona","barangay":"Veneracion","association":" VEVUFAI (Veneracion Urban Farmers Assocaition,Inc.)"}],"media":{"description":"Download Special Weather Forecast PDF bulletins.","url":"https://firebasestorage.googleapis.com/v0/b/amia-cis-dev.appspot.com/o/media%2Fimages%2Fopengraph%2F1200x600%2Fog_bulletins_typhoon.png?alt=media&token=2b5a0bba-0272-463e-aed3-1d0fc975646f","path":"https://amia-cis.github.io/bulletins/special-weather-forecast"}},"__N_SSG":true}