{"pageProps":{"villages":[{"association":"Alas Farmers Association","lon":"123.343322","municipality":"Mandaon","province":"Masbate","barangay":"Alas","lat":"12.261882"},{"barangay":"Alayao","lon":"122.557276","lat":"14.283999","municipality":"Capalonga","association":"Cabibiroc-Alayao Farmers Association (CAFA)","province":"Camarines Norte"},{"association":"Biong Farmers Association","lat":"13.77147","province":"Catanduanes","municipality":"Gigmoto","barangay":"Biong","lon":"124.362139"},{"lon":"123.106714","association":"Cagbunga Riverside Farmers Organization","lat":"13.63714","municipality":"Pamplona","province":"Camarines Sur","barangay":"Cagbunga"},{"barangay":"Dinapa","province":"Sorsogon","association":"Dinapa Farmers Association","lat":"12.908257","lon":"123.786951","municipality":"Castilla"},{"lon":"123.620308","barangay":"Joroan","lat":"13.489628","province":"Albay","association":"Joroan Farmers and Fisherfollks Association","municipality":"Tiwi"},{"lat":"14.269422","lon":"122.820835","association":"Paracale Corn and Cassava Farmers Association","municipality":"Paracale","barangay":"Labnig","province":"Camarines Norte"},{"municipality":"Pio Duran","province":"Albay","barangay":"Marigondon","lon":"123.431072","lat":"13.054393","association":"AMIA (Asenso Marigondon Irrigators Association)"},{"association":"Peñafrancia Farmers and Fisherfolks Association","lat":"13.885986","municipality":"Viga","barangay":"Peñafrancia","lon":"124.319818","province":"Catanduanes"},{"lat":"12.193129","association":" Quezon Small Farmers Association MaQueba (Magsaysay,Quezon and Badling","province":"Masbate","lon":"123.801844","municipality":"Uson","barangay":"Quezon"},{"municipality":"Prieto Diaz","barangay":"San Isidro","association":"San Isidro Farmers Association","lon":"124.172603","lat":"13.028927","province":"Sorsogon"},{"province":"Masbate","barangay":"San Mateo","municipality":"Uson","lat":"12.190327","association":"San Mateo Farmers Association","lon":"123.817117"},{"lon":"123.046109","municipality":"Pamplona","province":"Camarines Sur","association":"TARBA (Tampadong Agrarian Reform Beneficiaries Association)","lat":"13.567574","barangay":"Tampadong"},{"barangay":"Veneracion","lon":"123.062039","lat":"13.555508","association":" VEVUFAI (Veneracion Urban Farmers Assocaition,Inc.)","province":"Camarines Sur","municipality":"Pamplona"}],"media":["https://firebasestorage.googleapis.com/v0/b/amia-cis-dev.appspot.com/o/media%2Fimages%2Fgallery%2Fth_clouds.png?alt=media&token=be6d403d-c2d7-4970-9be8-caa1ec484dd2","https://firebasestorage.googleapis.com/v0/b/amia-cis-dev.appspot.com/o/media%2Fimages%2Fgallery%2Fth_seasonal.png?alt=media&token=884f1234-bfc5-4927-91c7-006a90110a24","https://firebasestorage.googleapis.com/v0/b/amia-cis-dev.appspot.com/o/media%2Fimages%2Fgallery%2Fth_typhoon_03.png?alt=media&token=864f099e-29f8-4a17-b282-0af0c121254a"]},"__N_SSG":true}