{"pageProps":{"villages":[{"province":"Masbate","barangay":"Alas","municipality":"Mandaon","lat":"12.261882","lon":"123.343322","association":"Alas Farmers Association"},{"lat":"14.283999","barangay":"Alayao","municipality":"Capalonga","province":"Camarines Norte","association":"Cabibiroc-Alayao Farmers Association (CAFA)","lon":"122.557276"},{"association":"Biong Farmers Association","barangay":"Biong","lon":"124.362139","province":"Catanduanes","lat":"13.77147","municipality":"Gigmoto"},{"lon":"123.106714","association":"Cagbunga Riverside Farmers Organization","lat":"13.63714","municipality":"Pamplona","province":"Camarines Sur","barangay":"Cagbunga"},{"association":"Dinapa Farmers Association","province":"Sorsogon","lat":"12.908257","municipality":"Castilla","barangay":"Dinapa","lon":"123.786951"},{"municipality":"Tiwi","lon":"123.620308","barangay":"Joroan","lat":"13.489628","province":"Albay","association":"Joroan Farmers and Fisherfollks Association"},{"lon":"122.820835","association":"Paracale Corn and Cassava Farmers Association","province":"Camarines Norte","barangay":"Labnig","lat":"14.269422","municipality":"Paracale"},{"barangay":"Marigondon","lon":"123.431072","province":"Albay","municipality":"Pio Duran","lat":"13.054393","association":"AMIA (Asenso Marigondon Irrigators Association)"},{"lon":"124.319818","barangay":"Peñafrancia","lat":"13.885986","municipality":"Viga","association":"Peñafrancia Farmers and Fisherfolks Association","province":"Catanduanes"},{"province":"Masbate","barangay":"Quezon","lon":"123.801844","association":" Quezon Small Farmers Association MaQueba (Magsaysay,Quezon and Badling","municipality":"Uson","lat":"12.193129"},{"lat":"13.028927","municipality":"Prieto Diaz","lon":"124.172603","province":"Sorsogon","barangay":"San Isidro","association":"San Isidro Farmers Association"},{"lat":"12.190327","association":"San Mateo Farmers Association","lon":"123.817117","barangay":"San Mateo","municipality":"Uson","province":"Masbate"},{"lat":"13.567574","barangay":"Tampadong","province":"Camarines Sur","municipality":"Pamplona","lon":"123.046109","association":"TARBA (Tampadong Agrarian Reform Beneficiaries Association)"},{"lat":"13.555508","province":"Camarines Sur","lon":"123.062039","municipality":"Pamplona","barangay":"Veneracion","association":" VEVUFAI (Veneracion Urban Farmers Assocaition,Inc.)"}]},"__N_SSG":true}