{"pageProps":{"villages":[{"lon":"123.343322","province":"Masbate","association":"Alas Farmers Association","lat":"12.261882","municipality":"Mandaon","barangay":"Alas"},{"lat":"14.283999","barangay":"Alayao","municipality":"Capalonga","province":"Camarines Norte","lon":"122.557276","association":"Cabibiroc-Alayao Farmers Association (CAFA)"},{"municipality":"Gigmoto","province":"Catanduanes","lon":"124.362139","barangay":"Biong","lat":"13.77147","association":"Biong Farmers Association"},{"municipality":"Pamplona","lat":"13.63714","province":"Camarines Sur","association":"Cagbunga Riverside Farmers Organization","lon":"123.106714","barangay":"Cagbunga"},{"province":"Sorsogon","barangay":"Dinapa","association":"Dinapa Farmers Association","lat":"12.908257","lon":"123.786951","municipality":"Castilla"},{"municipality":"Tiwi","lon":"123.620308","association":"Joroan Farmers and Fisherfollks Association","province":"Albay","lat":"13.489628","barangay":"Joroan"},{"province":"Camarines Norte","municipality":"Paracale","lon":"122.820835","barangay":"Labnig","lat":"14.269422","association":"Paracale Corn and Cassava Farmers Association"},{"province":"Albay","municipality":"Pio Duran","lat":"13.054393","lon":"123.431072","association":"AMIA (Asenso Marigondon Irrigators Association)","barangay":"Marigondon"},{"lat":"13.885986","barangay":"Peñafrancia","municipality":"Viga","association":"Peñafrancia Farmers and Fisherfolks Association","province":"Catanduanes","lon":"124.319818"},{"barangay":"Quezon","lon":"123.801844","municipality":"Uson","province":"Masbate","lat":"12.193129","association":" Quezon Small Farmers Association MaQueba (Magsaysay,Quezon and Badling"},{"barangay":"San Isidro","municipality":"Prieto Diaz","lon":"124.172603","association":"San Isidro Farmers Association","province":"Sorsogon","lat":"13.028927"},{"barangay":"San Mateo","association":"San Mateo Farmers Association","municipality":"Uson","lon":"123.817117","lat":"12.190327","province":"Masbate"},{"lat":"13.567574","barangay":"Tampadong","association":"TARBA (Tampadong Agrarian Reform Beneficiaries Association)","lon":"123.046109","province":"Camarines Sur","municipality":"Pamplona"},{"association":" VEVUFAI (Veneracion Urban Farmers Assocaition,Inc.)","municipality":"Pamplona","lat":"13.555508","lon":"123.062039","barangay":"Veneracion","province":"Camarines Sur"}],"media":["https://firebasestorage.googleapis.com/v0/b/amia-cis-dev.appspot.com/o/media%2Fimages%2Fgallery%2Fth_clouds.png?alt=media&token=be6d403d-c2d7-4970-9be8-caa1ec484dd2","https://firebasestorage.googleapis.com/v0/b/amia-cis-dev.appspot.com/o/media%2Fimages%2Fgallery%2Fth_seasonal.png?alt=media&token=884f1234-bfc5-4927-91c7-006a90110a24","https://firebasestorage.googleapis.com/v0/b/amia-cis-dev.appspot.com/o/media%2Fimages%2Fgallery%2Fth_typhoon_03.png?alt=media&token=864f099e-29f8-4a17-b282-0af0c121254a"],"info":{"description":"View or download bulletin PDF recommendations for the Seasonal and 10-Day Weather Outlook","url":"https://firebasestorage.googleapis.com/v0/b/amia-cis-dev.appspot.com/o/media%2Fimages%2Fopengraph%2F1200x600%2Fog_bulletins_1200.png?alt=media&token=54e900b0-cb13-4f0f-9418-b8052580ffeb","path":"https://amia-cis.github.io/bulletins"}},"__N_SSG":true}