{"pageProps":{"villages":[{"province":"Masbate","municipality":"Mandaon","association":"Alas Farmers Association","lon":"123.343322","barangay":"Alas","lat":"12.261882"},{"municipality":"Capalonga","association":"Cabibiroc-Alayao Farmers Association (CAFA)","barangay":"Alayao","province":"Camarines Norte","lat":"14.283999","lon":"122.557276"},{"barangay":"Biong","lon":"124.362139","lat":"13.77147","province":"Catanduanes","municipality":"Gigmoto","association":"Biong Farmers Association"},{"association":"Cagbunga Riverside Farmers Organization","lat":"13.63714","lon":"123.106714","barangay":"Cagbunga","province":"Camarines Sur","municipality":"Pamplona"},{"barangay":"Dinapa","municipality":"Castilla","lon":"123.786951","association":"Dinapa Farmers Association","province":"Sorsogon","lat":"12.908257"},{"barangay":"Joroan","municipality":"Tiwi","lon":"123.620308","lat":"13.489628","province":"Albay","association":"Joroan Farmers and Fisherfollks Association"},{"lon":"122.820835","municipality":"Paracale","province":"Camarines Norte","barangay":"Labnig","lat":"14.269422","association":"Paracale Corn and Cassava Farmers Association"},{"barangay":"Marigondon","lon":"123.431072","lat":"13.054393","province":"Albay","association":"AMIA (Asenso Marigondon Irrigators Association)","municipality":"Pio Duran"},{"barangay":"Peñafrancia","province":"Catanduanes","municipality":"Viga","association":"Peñafrancia Farmers and Fisherfolks Association","lat":"13.885986","lon":"124.319818"},{"association":" Quezon Small Farmers Association MaQueba (Magsaysay,Quezon and Badling","lon":"123.801844","barangay":"Quezon","lat":"12.193129","municipality":"Uson","province":"Masbate"},{"lat":"13.028927","barangay":"San Isidro","lon":"124.172603","municipality":"Prieto Diaz","association":"San Isidro Farmers Association","province":"Sorsogon"},{"municipality":"Uson","lon":"123.817117","lat":"12.190327","association":"San Mateo Farmers Association","province":"Masbate","barangay":"San Mateo"},{"lon":"123.046109","municipality":"Pamplona","province":"Camarines Sur","barangay":"Tampadong","association":"TARBA (Tampadong Agrarian Reform Beneficiaries Association)","lat":"13.567574"},{"barangay":"Veneracion","lon":"123.062039","municipality":"Pamplona","province":"Camarines Sur","association":" VEVUFAI (Veneracion Urban Farmers Assocaition,Inc.)","lat":"13.555508"}],"media":["https://firebasestorage.googleapis.com/v0/b/amia-cis-dev.appspot.com/o/media%2Fimages%2Fgallery%2Fth_clouds.png?alt=media&token=be6d403d-c2d7-4970-9be8-caa1ec484dd2","https://firebasestorage.googleapis.com/v0/b/amia-cis-dev.appspot.com/o/media%2Fimages%2Fgallery%2Fth_seasonal.png?alt=media&token=884f1234-bfc5-4927-91c7-006a90110a24","https://firebasestorage.googleapis.com/v0/b/amia-cis-dev.appspot.com/o/media%2Fimages%2Fgallery%2Fth_typhoon_03.png?alt=media&token=864f099e-29f8-4a17-b282-0af0c121254a"]},"__N_SSG":true}