{"pageProps":{"villages":[{"lat":"12.261882","lon":"123.343322","province":"Masbate","barangay":"Alas","municipality":"Mandaon","association":"Alas Farmers Association"},{"province":"Camarines Norte","lon":"122.557276","lat":"14.283999","barangay":"Alayao","association":"Cabibiroc-Alayao Farmers Association (CAFA)","municipality":"Capalonga"},{"association":"Biong Farmers Association","lat":"13.77147","lon":"124.362139","barangay":"Biong","municipality":"Gigmoto","province":"Catanduanes"},{"lon":"123.106714","municipality":"Pamplona","province":"Camarines Sur","barangay":"Cagbunga","lat":"13.63714","association":"Cagbunga Riverside Farmers Organization"},{"municipality":"Castilla","association":"Dinapa Farmers Association","province":"Sorsogon","lon":"123.786951","barangay":"Dinapa","lat":"12.908257"},{"province":"Albay","association":"Joroan Farmers and Fisherfollks Association","lon":"123.620308","municipality":"Tiwi","barangay":"Joroan","lat":"13.489628"},{"barangay":"Labnig","lat":"14.269422","municipality":"Paracale","province":"Camarines Norte","association":"Paracale Corn and Cassava Farmers Association","lon":"122.820835"},{"lat":"13.054393","municipality":"Pio Duran","province":"Albay","barangay":"Marigondon","lon":"123.431072","association":"AMIA (Asenso Marigondon Irrigators Association)"},{"association":"Peñafrancia Farmers and Fisherfolks Association","municipality":"Viga","province":"Catanduanes","lat":"13.885986","lon":"124.319818","barangay":"Peñafrancia"},{"barangay":"Quezon","municipality":"Uson","province":"Masbate","lon":"123.801844","lat":"12.193129","association":" Quezon Small Farmers Association MaQueba (Magsaysay,Quezon and Badling"},{"association":"San Isidro Farmers Association","lon":"124.172603","lat":"13.028927","municipality":"Prieto Diaz","barangay":"San Isidro","province":"Sorsogon"},{"lon":"123.817117","barangay":"San Mateo","association":"San Mateo Farmers Association","municipality":"Uson","lat":"12.190327","province":"Masbate"},{"province":"Camarines Sur","municipality":"Pamplona","lat":"13.567574","barangay":"Tampadong","association":"TARBA (Tampadong Agrarian Reform Beneficiaries Association)","lon":"123.046109"},{"association":" VEVUFAI (Veneracion Urban Farmers Assocaition,Inc.)","lon":"123.062039","municipality":"Pamplona","province":"Camarines Sur","lat":"13.555508","barangay":"Veneracion"}]},"__N_SSG":true}