{"pageProps":{"villages":[{"barangay":"Alas","association":"Alas Farmers Association","lon":"123.343322","municipality":"Mandaon","province":"Masbate","lat":"12.261882"},{"association":"Cabibiroc-Alayao Farmers Association (CAFA)","barangay":"Alayao","province":"Camarines Norte","municipality":"Capalonga","lon":"122.557276","lat":"14.283999"},{"barangay":"Biong","municipality":"Gigmoto","lon":"124.362139","province":"Catanduanes","lat":"13.77147","association":"Biong Farmers Association"},{"municipality":"Pamplona","barangay":"Cagbunga","province":"Camarines Sur","lat":"13.63714","lon":"123.106714","association":"Cagbunga Riverside Farmers Organization"},{"province":"Sorsogon","association":"Dinapa Farmers Association","barangay":"Dinapa","municipality":"Castilla","lon":"123.786951","lat":"12.908257"},{"barangay":"Joroan","association":"Joroan Farmers and Fisherfollks Association","province":"Albay","lat":"13.489628","lon":"123.620308","municipality":"Tiwi"},{"province":"Camarines Norte","lat":"14.269422","barangay":"Labnig","lon":"122.820835","municipality":"Paracale","association":"Paracale Corn and Cassava Farmers Association"},{"lat":"13.054393","province":"Albay","barangay":"Marigondon","association":"AMIA (Asenso Marigondon Irrigators Association)","lon":"123.431072","municipality":"Pio Duran"},{"association":"Peñafrancia Farmers and Fisherfolks Association","barangay":"Peñafrancia","lon":"124.319818","municipality":"Viga","province":"Catanduanes","lat":"13.885986"},{"association":" Quezon Small Farmers Association MaQueba (Magsaysay,Quezon and Badling","lat":"12.193129","province":"Masbate","municipality":"Uson","barangay":"Quezon","lon":"123.801844"},{"lon":"124.172603","lat":"13.028927","municipality":"Prieto Diaz","association":"San Isidro Farmers Association","barangay":"San Isidro","province":"Sorsogon"},{"association":"San Mateo Farmers Association","province":"Masbate","lon":"123.817117","lat":"12.190327","barangay":"San Mateo","municipality":"Uson"},{"municipality":"Pamplona","lon":"123.046109","association":"TARBA (Tampadong Agrarian Reform Beneficiaries Association)","barangay":"Tampadong","province":"Camarines Sur","lat":"13.567574"},{"lon":"123.062039","association":" VEVUFAI (Veneracion Urban Farmers Assocaition,Inc.)","province":"Camarines Sur","municipality":"Pamplona","barangay":"Veneracion","lat":"13.555508"}]},"__N_SSG":true}