{"pageProps":{"villages":[{"barangay":"Alas","lon":"123.343322","province":"Masbate","association":"Alas Farmers Association","lat":"12.261882","municipality":"Mandaon"},{"lat":"14.283999","province":"Camarines Norte","association":"Cabibiroc-Alayao Farmers Association (CAFA)","barangay":"Alayao","municipality":"Capalonga","lon":"122.557276"},{"lon":"124.362139","municipality":"Gigmoto","association":"Biong Farmers Association","province":"Catanduanes","lat":"13.77147","barangay":"Biong"},{"lon":"123.106714","barangay":"Cagbunga","municipality":"Pamplona","association":"Cagbunga Riverside Farmers Organization","province":"Camarines Sur","lat":"13.63714"},{"province":"Sorsogon","municipality":"Castilla","association":"Dinapa Farmers Association","barangay":"Dinapa","lat":"12.908257","lon":"123.786951"},{"association":"Joroan Farmers and Fisherfollks Association","municipality":"Tiwi","lon":"123.620308","province":"Albay","barangay":"Joroan","lat":"13.489628"},{"barangay":"Labnig","municipality":"Paracale","lon":"122.820835","province":"Camarines Norte","lat":"14.269422","association":"Paracale Corn and Cassava Farmers Association"},{"lat":"13.054393","municipality":"Pio Duran","province":"Albay","barangay":"Marigondon","association":"AMIA (Asenso Marigondon Irrigators Association)","lon":"123.431072"},{"lat":"13.885986","municipality":"Viga","association":"Peñafrancia Farmers and Fisherfolks Association","barangay":"Peñafrancia","lon":"124.319818","province":"Catanduanes"},{"province":"Masbate","lon":"123.801844","association":" Quezon Small Farmers Association MaQueba (Magsaysay,Quezon and Badling","municipality":"Uson","lat":"12.193129","barangay":"Quezon"},{"lon":"124.172603","municipality":"Prieto Diaz","province":"Sorsogon","association":"San Isidro Farmers Association","barangay":"San Isidro","lat":"13.028927"},{"province":"Masbate","municipality":"Uson","association":"San Mateo Farmers Association","lat":"12.190327","lon":"123.817117","barangay":"San Mateo"},{"barangay":"Tampadong","lat":"13.567574","association":"TARBA (Tampadong Agrarian Reform Beneficiaries Association)","municipality":"Pamplona","province":"Camarines Sur","lon":"123.046109"},{"barangay":"Veneracion","lat":"13.555508","municipality":"Pamplona","lon":"123.062039","province":"Camarines Sur","association":" VEVUFAI (Veneracion Urban Farmers Assocaition,Inc.)"}],"media":["https://firebasestorage.googleapis.com/v0/b/amia-cis-dev.appspot.com/o/media%2Fimages%2Fgallery%2Fth_clouds.png?alt=media&token=be6d403d-c2d7-4970-9be8-caa1ec484dd2","https://firebasestorage.googleapis.com/v0/b/amia-cis-dev.appspot.com/o/media%2Fimages%2Fgallery%2Fth_seasonal.png?alt=media&token=884f1234-bfc5-4927-91c7-006a90110a24","https://firebasestorage.googleapis.com/v0/b/amia-cis-dev.appspot.com/o/media%2Fimages%2Fgallery%2Fth_typhoon_03.png?alt=media&token=864f099e-29f8-4a17-b282-0af0c121254a"]},"__N_SSG":true}