{"pageProps":{"villages":[{"association":"Alas Farmers Association","barangay":"Alas","lat":"12.261882","lon":"123.343322","province":"Masbate","municipality":"Mandaon"},{"municipality":"Capalonga","lat":"14.283999","lon":"122.557276","province":"Camarines Norte","barangay":"Alayao","association":"Cabibiroc-Alayao Farmers Association (CAFA)"},{"association":"Biong Farmers Association","lat":"13.77147","province":"Catanduanes","lon":"124.362139","municipality":"Gigmoto","barangay":"Biong"},{"province":"Camarines Sur","municipality":"Pamplona","lon":"123.106714","association":"Cagbunga Riverside Farmers Organization","barangay":"Cagbunga","lat":"13.63714"},{"lat":"12.908257","province":"Sorsogon","lon":"123.786951","municipality":"Castilla","association":"Dinapa Farmers Association","barangay":"Dinapa"},{"barangay":"Joroan","association":"Joroan Farmers and Fisherfollks Association","municipality":"Tiwi","lon":"123.620308","lat":"13.489628","province":"Albay"},{"municipality":"Paracale","lat":"14.269422","province":"Camarines Norte","lon":"122.820835","barangay":"Labnig","association":"Paracale Corn and Cassava Farmers Association"},{"municipality":"Pio Duran","barangay":"Marigondon","lat":"13.054393","lon":"123.431072","province":"Albay","association":"AMIA (Asenso Marigondon Irrigators Association)"},{"lat":"13.885986","lon":"124.319818","association":"Peñafrancia Farmers and Fisherfolks Association","municipality":"Viga","province":"Catanduanes","barangay":"Peñafrancia"},{"lon":"123.801844","association":" Quezon Small Farmers Association MaQueba (Magsaysay,Quezon and Badling","province":"Masbate","municipality":"Uson","lat":"12.193129","barangay":"Quezon"},{"lon":"124.172603","association":"San Isidro Farmers Association","lat":"13.028927","municipality":"Prieto Diaz","barangay":"San Isidro","province":"Sorsogon"},{"lon":"123.817117","province":"Masbate","municipality":"Uson","barangay":"San Mateo","association":"San Mateo Farmers Association","lat":"12.190327"},{"lon":"123.046109","province":"Camarines Sur","association":"TARBA (Tampadong Agrarian Reform Beneficiaries Association)","barangay":"Tampadong","lat":"13.567574","municipality":"Pamplona"},{"lat":"13.555508","association":" VEVUFAI (Veneracion Urban Farmers Assocaition,Inc.)","barangay":"Veneracion","municipality":"Pamplona","province":"Camarines Sur","lon":"123.062039"}]},"__N_SSG":true}