{"pageProps":{"villages":[{"association":"Alas Farmers Association","lat":"12.261882","lon":"123.343322","province":"Masbate","municipality":"Mandaon","barangay":"Alas"},{"lon":"122.557276","association":"Cabibiroc-Alayao Farmers Association (CAFA)","province":"Camarines Norte","lat":"14.283999","municipality":"Capalonga","barangay":"Alayao"},{"barangay":"Biong","province":"Catanduanes","association":"Biong Farmers Association","lat":"13.77147","lon":"124.362139","municipality":"Gigmoto"},{"lon":"123.106714","province":"Camarines Sur","municipality":"Pamplona","barangay":"Cagbunga","lat":"13.63714","association":"Cagbunga Riverside Farmers Organization"},{"association":"Dinapa Farmers Association","barangay":"Dinapa","lat":"12.908257","municipality":"Castilla","province":"Sorsogon","lon":"123.786951"},{"lat":"13.489628","barangay":"Joroan","municipality":"Tiwi","association":"Joroan Farmers and Fisherfollks Association","lon":"123.620308","province":"Albay"},{"lat":"14.269422","province":"Camarines Norte","lon":"122.820835","barangay":"Labnig","municipality":"Paracale","association":"Paracale Corn and Cassava Farmers Association"},{"municipality":"Pio Duran","association":"AMIA (Asenso Marigondon Irrigators Association)","lat":"13.054393","province":"Albay","barangay":"Marigondon","lon":"123.431072"},{"lon":"124.319818","municipality":"Viga","barangay":"Peñafrancia","province":"Catanduanes","association":"Peñafrancia Farmers and Fisherfolks Association","lat":"13.885986"},{"barangay":"Quezon","municipality":"Uson","province":"Masbate","lon":"123.801844","lat":"12.193129","association":" Quezon Small Farmers Association MaQueba (Magsaysay,Quezon and Badling"},{"barangay":"San Isidro","association":"San Isidro Farmers Association","lon":"124.172603","municipality":"Prieto Diaz","province":"Sorsogon","lat":"13.028927"},{"lon":"123.817117","lat":"12.190327","municipality":"Uson","association":"San Mateo Farmers Association","barangay":"San Mateo","province":"Masbate"},{"province":"Camarines Sur","barangay":"Tampadong","municipality":"Pamplona","lat":"13.567574","lon":"123.046109","association":"TARBA (Tampadong Agrarian Reform Beneficiaries Association)"},{"province":"Camarines Sur","association":" VEVUFAI (Veneracion Urban Farmers Assocaition,Inc.)","lat":"13.555508","municipality":"Pamplona","barangay":"Veneracion","lon":"123.062039"}]},"__N_SSG":true}