{"pageProps":{"villages":[{"association":"Alas Farmers Association","barangay":"Alas","lon":"123.343322","municipality":"Mandaon","lat":"12.261882","province":"Masbate"},{"association":"Cabibiroc-Alayao Farmers Association (CAFA)","barangay":"Alayao","lat":"14.283999","municipality":"Capalonga","province":"Camarines Norte","lon":"122.557276"},{"lat":"13.77147","province":"Catanduanes","barangay":"Biong","lon":"124.362139","association":"Biong Farmers Association","municipality":"Gigmoto"},{"province":"Camarines Sur","association":"Cagbunga Riverside Farmers Organization","barangay":"Cagbunga","lat":"13.63714","municipality":"Pamplona","lon":"123.106714"},{"municipality":"Castilla","association":"Dinapa Farmers Association","barangay":"Dinapa","province":"Sorsogon","lat":"12.908257","lon":"123.786951"},{"association":"Joroan Farmers and Fisherfollks Association","lon":"123.620308","lat":"13.489628","province":"Albay","barangay":"Joroan","municipality":"Tiwi"},{"province":"Camarines Norte","association":"Paracale Corn and Cassava Farmers Association","municipality":"Paracale","barangay":"Labnig","lon":"122.820835","lat":"14.269422"},{"barangay":"Marigondon","lat":"13.054393","municipality":"Pio Duran","province":"Albay","association":"AMIA (Asenso Marigondon Irrigators Association)","lon":"123.431072"},{"barangay":"Peñafrancia","province":"Catanduanes","lon":"124.319818","lat":"13.885986","municipality":"Viga","association":"Peñafrancia Farmers and Fisherfolks Association"},{"lon":"123.801844","barangay":"Quezon","municipality":"Uson","association":" Quezon Small Farmers Association MaQueba (Magsaysay,Quezon and Badling","province":"Masbate","lat":"12.193129"},{"lat":"13.028927","association":"San Isidro Farmers Association","province":"Sorsogon","municipality":"Prieto Diaz","lon":"124.172603","barangay":"San Isidro"},{"lat":"12.190327","barangay":"San Mateo","lon":"123.817117","municipality":"Uson","province":"Masbate","association":"San Mateo Farmers Association"},{"province":"Camarines Sur","barangay":"Tampadong","lat":"13.567574","association":"TARBA (Tampadong Agrarian Reform Beneficiaries Association)","municipality":"Pamplona","lon":"123.046109"},{"province":"Camarines Sur","barangay":"Veneracion","lon":"123.062039","lat":"13.555508","municipality":"Pamplona","association":" VEVUFAI (Veneracion Urban Farmers Assocaition,Inc.)"}]},"__N_SSG":true}