{"pageProps":{"villages":[{"barangay":"Alas","lat":"12.261882","lon":"123.343322","province":"Masbate","municipality":"Mandaon","association":"Alas Farmers Association"},{"municipality":"Capalonga","lon":"122.557276","province":"Camarines Norte","barangay":"Alayao","lat":"14.283999","association":"Cabibiroc-Alayao Farmers Association (CAFA)"},{"municipality":"Gigmoto","association":"Biong Farmers Association","barangay":"Biong","province":"Catanduanes","lat":"13.77147","lon":"124.362139"},{"municipality":"Pamplona","lat":"13.63714","association":"Cagbunga Riverside Farmers Organization","barangay":"Cagbunga","lon":"123.106714","province":"Camarines Sur"},{"barangay":"Dinapa","municipality":"Castilla","province":"Sorsogon","association":"Dinapa Farmers Association","lon":"123.786951","lat":"12.908257"},{"lon":"123.620308","association":"Joroan Farmers and Fisherfollks Association","barangay":"Joroan","municipality":"Tiwi","province":"Albay","lat":"13.489628"},{"municipality":"Paracale","province":"Camarines Norte","lon":"122.820835","barangay":"Labnig","association":"Paracale Corn and Cassava Farmers Association","lat":"14.269422"},{"municipality":"Pio Duran","lat":"13.054393","lon":"123.431072","association":"AMIA (Asenso Marigondon Irrigators Association)","province":"Albay","barangay":"Marigondon"},{"municipality":"Viga","barangay":"Peñafrancia","lat":"13.885986","province":"Catanduanes","association":"Peñafrancia Farmers and Fisherfolks Association","lon":"124.319818"},{"province":"Masbate","association":" Quezon Small Farmers Association MaQueba (Magsaysay,Quezon and Badling","lat":"12.193129","lon":"123.801844","municipality":"Uson","barangay":"Quezon"},{"lon":"124.172603","province":"Sorsogon","association":"San Isidro Farmers Association","barangay":"San Isidro","lat":"13.028927","municipality":"Prieto Diaz"},{"association":"San Mateo Farmers Association","province":"Masbate","lon":"123.817117","lat":"12.190327","municipality":"Uson","barangay":"San Mateo"},{"province":"Camarines Sur","lon":"123.046109","association":"TARBA (Tampadong Agrarian Reform Beneficiaries Association)","lat":"13.567574","barangay":"Tampadong","municipality":"Pamplona"},{"association":" VEVUFAI (Veneracion Urban Farmers Assocaition,Inc.)","lon":"123.062039","lat":"13.555508","province":"Camarines Sur","municipality":"Pamplona","barangay":"Veneracion"}]},"__N_SSG":true}