{"pageProps":{"villages":[{"association":"Alas Farmers Association","municipality":"Mandaon","lat":"12.261882","barangay":"Alas","province":"Masbate","lon":"123.343322"},{"lat":"14.283999","province":"Camarines Norte","municipality":"Capalonga","barangay":"Alayao","lon":"122.557276","association":"Cabibiroc-Alayao Farmers Association (CAFA)"},{"province":"Catanduanes","association":"Biong Farmers Association","lat":"13.77147","municipality":"Gigmoto","barangay":"Biong","lon":"124.362139"},{"lon":"123.106714","lat":"13.63714","municipality":"Pamplona","barangay":"Cagbunga","province":"Camarines Sur","association":"Cagbunga Riverside Farmers Organization"},{"lat":"12.908257","lon":"123.786951","municipality":"Castilla","association":"Dinapa Farmers Association","province":"Sorsogon","barangay":"Dinapa"},{"lon":"123.620308","barangay":"Joroan","association":"Joroan Farmers and Fisherfollks Association","municipality":"Tiwi","province":"Albay","lat":"13.489628"},{"barangay":"Labnig","lon":"122.820835","lat":"14.269422","municipality":"Paracale","province":"Camarines Norte","association":"Paracale Corn and Cassava Farmers Association"},{"lat":"13.054393","lon":"123.431072","municipality":"Pio Duran","barangay":"Marigondon","province":"Albay","association":"AMIA (Asenso Marigondon Irrigators Association)"},{"barangay":"Peñafrancia","province":"Catanduanes","lat":"13.885986","association":"Peñafrancia Farmers and Fisherfolks Association","municipality":"Viga","lon":"124.319818"},{"association":" Quezon Small Farmers Association MaQueba (Magsaysay,Quezon and Badling","municipality":"Uson","lat":"12.193129","barangay":"Quezon","lon":"123.801844","province":"Masbate"},{"lat":"13.028927","association":"San Isidro Farmers Association","barangay":"San Isidro","province":"Sorsogon","municipality":"Prieto Diaz","lon":"124.172603"},{"barangay":"San Mateo","lon":"123.817117","lat":"12.190327","municipality":"Uson","province":"Masbate","association":"San Mateo Farmers Association"},{"lat":"13.567574","lon":"123.046109","municipality":"Pamplona","province":"Camarines Sur","barangay":"Tampadong","association":"TARBA (Tampadong Agrarian Reform Beneficiaries Association)"},{"lon":"123.062039","province":"Camarines Sur","association":" VEVUFAI (Veneracion Urban Farmers Assocaition,Inc.)","municipality":"Pamplona","barangay":"Veneracion","lat":"13.555508"}]},"__N_SSG":true}