{"pageProps":{"villages":[{"lat":"12.261882","lon":"123.343322","province":"Masbate","association":"Alas Farmers Association","municipality":"Mandaon","barangay":"Alas"},{"lon":"122.557276","province":"Camarines Norte","lat":"14.283999","municipality":"Capalonga","association":"Cabibiroc-Alayao Farmers Association (CAFA)","barangay":"Alayao"},{"province":"Catanduanes","association":"Biong Farmers Association","municipality":"Gigmoto","barangay":"Biong","lon":"124.362139","lat":"13.77147"},{"municipality":"Pamplona","barangay":"Cagbunga","lon":"123.106714","lat":"13.63714","province":"Camarines Sur","association":"Cagbunga Riverside Farmers Organization"},{"barangay":"Dinapa","association":"Dinapa Farmers Association","municipality":"Castilla","lat":"12.908257","lon":"123.786951","province":"Sorsogon"},{"lat":"13.489628","municipality":"Tiwi","province":"Albay","association":"Joroan Farmers and Fisherfollks Association","lon":"123.620308","barangay":"Joroan"},{"association":"Paracale Corn and Cassava Farmers Association","municipality":"Paracale","province":"Camarines Norte","lat":"14.269422","lon":"122.820835","barangay":"Labnig"},{"lon":"123.431072","province":"Albay","association":"AMIA (Asenso Marigondon Irrigators Association)","lat":"13.054393","barangay":"Marigondon","municipality":"Pio Duran"},{"lon":"124.319818","lat":"13.885986","province":"Catanduanes","municipality":"Viga","barangay":"Peñafrancia","association":"Peñafrancia Farmers and Fisherfolks Association"},{"association":" Quezon Small Farmers Association MaQueba (Magsaysay,Quezon and Badling","lat":"12.193129","province":"Masbate","lon":"123.801844","municipality":"Uson","barangay":"Quezon"},{"lat":"13.028927","association":"San Isidro Farmers Association","barangay":"San Isidro","lon":"124.172603","municipality":"Prieto Diaz","province":"Sorsogon"},{"lon":"123.817117","municipality":"Uson","province":"Masbate","association":"San Mateo Farmers Association","barangay":"San Mateo","lat":"12.190327"},{"province":"Camarines Sur","municipality":"Pamplona","barangay":"Tampadong","lon":"123.046109","association":"TARBA (Tampadong Agrarian Reform Beneficiaries Association)","lat":"13.567574"},{"association":" VEVUFAI (Veneracion Urban Farmers Assocaition,Inc.)","lat":"13.555508","municipality":"Pamplona","barangay":"Veneracion","lon":"123.062039","province":"Camarines Sur"}]},"__N_SSG":true}