{"pageProps":{"villages":[{"lon":"123.343322","association":"Alas Farmers Association","lat":"12.261882","province":"Masbate","barangay":"Alas","municipality":"Mandaon"},{"lon":"122.557276","barangay":"Alayao","lat":"14.283999","association":"Cabibiroc-Alayao Farmers Association (CAFA)","municipality":"Capalonga","province":"Camarines Norte"},{"lon":"124.362139","municipality":"Gigmoto","association":"Biong Farmers Association","lat":"13.77147","barangay":"Biong","province":"Catanduanes"},{"barangay":"Cagbunga","lat":"13.63714","association":"Cagbunga Riverside Farmers Organization","municipality":"Pamplona","lon":"123.106714","province":"Camarines Sur"},{"municipality":"Castilla","province":"Sorsogon","association":"Dinapa Farmers Association","barangay":"Dinapa","lat":"12.908257","lon":"123.786951"},{"lon":"123.620308","lat":"13.489628","municipality":"Tiwi","association":"Joroan Farmers and Fisherfollks Association","barangay":"Joroan","province":"Albay"},{"municipality":"Paracale","barangay":"Labnig","lon":"122.820835","province":"Camarines Norte","association":"Paracale Corn and Cassava Farmers Association","lat":"14.269422"},{"association":"AMIA (Asenso Marigondon Irrigators Association)","municipality":"Pio Duran","province":"Albay","barangay":"Marigondon","lat":"13.054393","lon":"123.431072"},{"lon":"124.319818","lat":"13.885986","municipality":"Viga","association":"Peñafrancia Farmers and Fisherfolks Association","barangay":"Peñafrancia","province":"Catanduanes"},{"province":"Masbate","lat":"12.193129","lon":"123.801844","barangay":"Quezon","association":" Quezon Small Farmers Association MaQueba (Magsaysay,Quezon and Badling","municipality":"Uson"},{"province":"Sorsogon","association":"San Isidro Farmers Association","lat":"13.028927","lon":"124.172603","barangay":"San Isidro","municipality":"Prieto Diaz"},{"association":"San Mateo Farmers Association","lon":"123.817117","lat":"12.190327","municipality":"Uson","barangay":"San Mateo","province":"Masbate"},{"lat":"13.567574","association":"TARBA (Tampadong Agrarian Reform Beneficiaries Association)","barangay":"Tampadong","province":"Camarines Sur","lon":"123.046109","municipality":"Pamplona"},{"lon":"123.062039","province":"Camarines Sur","barangay":"Veneracion","lat":"13.555508","association":" VEVUFAI (Veneracion Urban Farmers Assocaition,Inc.)","municipality":"Pamplona"}],"media":{"description":"Download Regional Seasonal Climate Outlook and Advisory PDF bulletins.","url":"https://firebasestorage.googleapis.com/v0/b/amia-cis-dev.appspot.com/o/media%2Fimages%2Fopengraph%2F1200x600%2Fog_bulletins_seasonal.png?alt=media&token=18cb4216-8ee9-4da8-b49c-f13fcfb025cb","path":"https://amia-cis.github.io/bulletins/seasonal-outlook"}},"__N_SSG":true}