{"pageProps":{"villages":[{"province":"Masbate","association":"Alas Farmers Association","barangay":"Alas","municipality":"Mandaon","lon":"123.343322","lat":"12.261882"},{"province":"Camarines Norte","lat":"14.283999","barangay":"Alayao","municipality":"Capalonga","lon":"122.557276","association":"Cabibiroc-Alayao Farmers Association (CAFA)"},{"lat":"13.77147","association":"Biong Farmers Association","province":"Catanduanes","barangay":"Biong","lon":"124.362139","municipality":"Gigmoto"},{"barangay":"Cagbunga","lon":"123.106714","municipality":"Pamplona","lat":"13.63714","association":"Cagbunga Riverside Farmers Organization","province":"Camarines Sur"},{"municipality":"Castilla","association":"Dinapa Farmers Association","barangay":"Dinapa","lat":"12.908257","province":"Sorsogon","lon":"123.786951"},{"lat":"13.489628","province":"Albay","association":"Joroan Farmers and Fisherfollks Association","barangay":"Joroan","lon":"123.620308","municipality":"Tiwi"},{"lon":"122.820835","lat":"14.269422","province":"Camarines Norte","barangay":"Labnig","municipality":"Paracale","association":"Paracale Corn and Cassava Farmers Association"},{"lat":"13.054393","association":"AMIA (Asenso Marigondon Irrigators Association)","province":"Albay","barangay":"Marigondon","municipality":"Pio Duran","lon":"123.431072"},{"lat":"13.885986","barangay":"Peñafrancia","municipality":"Viga","association":"Peñafrancia Farmers and Fisherfolks Association","lon":"124.319818","province":"Catanduanes"},{"association":" Quezon Small Farmers Association MaQueba (Magsaysay,Quezon and Badling","lat":"12.193129","lon":"123.801844","barangay":"Quezon","province":"Masbate","municipality":"Uson"},{"barangay":"San Isidro","province":"Sorsogon","lat":"13.028927","municipality":"Prieto Diaz","lon":"124.172603","association":"San Isidro Farmers Association"},{"barangay":"San Mateo","lon":"123.817117","province":"Masbate","municipality":"Uson","lat":"12.190327","association":"San Mateo Farmers Association"},{"association":"TARBA (Tampadong Agrarian Reform Beneficiaries Association)","municipality":"Pamplona","barangay":"Tampadong","lat":"13.567574","lon":"123.046109","province":"Camarines Sur"},{"lat":"13.555508","province":"Camarines Sur","municipality":"Pamplona","association":" VEVUFAI (Veneracion Urban Farmers Assocaition,Inc.)","barangay":"Veneracion","lon":"123.062039"}],"media":["https://firebasestorage.googleapis.com/v0/b/amia-cis-dev.appspot.com/o/media%2Fimages%2Fgallery%2Fth_clouds.png?alt=media&token=be6d403d-c2d7-4970-9be8-caa1ec484dd2","https://firebasestorage.googleapis.com/v0/b/amia-cis-dev.appspot.com/o/media%2Fimages%2Fgallery%2Fth_seasonal.png?alt=media&token=884f1234-bfc5-4927-91c7-006a90110a24","https://firebasestorage.googleapis.com/v0/b/amia-cis-dev.appspot.com/o/media%2Fimages%2Fgallery%2Fth_typhoon_03.png?alt=media&token=864f099e-29f8-4a17-b282-0af0c121254a"]},"__N_SSG":true}