{"pageProps":{"villages":[{"lon":"123.343322","province":"Masbate","municipality":"Mandaon","association":"Alas Farmers Association","lat":"12.261882","barangay":"Alas"},{"lon":"122.557276","lat":"14.283999","association":"Cabibiroc-Alayao Farmers Association (CAFA)","barangay":"Alayao","municipality":"Capalonga","province":"Camarines Norte"},{"municipality":"Gigmoto","barangay":"Biong","lat":"13.77147","lon":"124.362139","association":"Biong Farmers Association","province":"Catanduanes"},{"lon":"123.106714","barangay":"Cagbunga","lat":"13.63714","association":"Cagbunga Riverside Farmers Organization","municipality":"Pamplona","province":"Camarines Sur"},{"lat":"12.908257","lon":"123.786951","barangay":"Dinapa","province":"Sorsogon","association":"Dinapa Farmers Association","municipality":"Castilla"},{"lat":"13.489628","association":"Joroan Farmers and Fisherfollks Association","municipality":"Tiwi","barangay":"Joroan","province":"Albay","lon":"123.620308"},{"barangay":"Labnig","lat":"14.269422","municipality":"Paracale","association":"Paracale Corn and Cassava Farmers Association","province":"Camarines Norte","lon":"122.820835"},{"lat":"13.054393","lon":"123.431072","barangay":"Marigondon","association":"AMIA (Asenso Marigondon Irrigators Association)","province":"Albay","municipality":"Pio Duran"},{"province":"Catanduanes","lat":"13.885986","municipality":"Viga","barangay":"Peñafrancia","lon":"124.319818","association":"Peñafrancia Farmers and Fisherfolks Association"},{"association":" Quezon Small Farmers Association MaQueba (Magsaysay,Quezon and Badling","municipality":"Uson","lat":"12.193129","barangay":"Quezon","province":"Masbate","lon":"123.801844"},{"municipality":"Prieto Diaz","barangay":"San Isidro","province":"Sorsogon","association":"San Isidro Farmers Association","lat":"13.028927","lon":"124.172603"},{"municipality":"Uson","barangay":"San Mateo","lat":"12.190327","province":"Masbate","lon":"123.817117","association":"San Mateo Farmers Association"},{"municipality":"Pamplona","barangay":"Tampadong","lon":"123.046109","lat":"13.567574","province":"Camarines Sur","association":"TARBA (Tampadong Agrarian Reform Beneficiaries Association)"},{"association":" VEVUFAI (Veneracion Urban Farmers Assocaition,Inc.)","municipality":"Pamplona","province":"Camarines Sur","lon":"123.062039","barangay":"Veneracion","lat":"13.555508"}],"media":["https://firebasestorage.googleapis.com/v0/b/amia-cis-dev.appspot.com/o/media%2Fimages%2Fgallery%2Fth_clouds.png?alt=media&token=be6d403d-c2d7-4970-9be8-caa1ec484dd2","https://firebasestorage.googleapis.com/v0/b/amia-cis-dev.appspot.com/o/media%2Fimages%2Fgallery%2Fth_seasonal.png?alt=media&token=884f1234-bfc5-4927-91c7-006a90110a24","https://firebasestorage.googleapis.com/v0/b/amia-cis-dev.appspot.com/o/media%2Fimages%2Fgallery%2Fth_typhoon_03.png?alt=media&token=864f099e-29f8-4a17-b282-0af0c121254a"],"info":{"description":"View or download bulletin PDF recommendations for the Seasonal and 10-Day Weather Outlook","url":"https://firebasestorage.googleapis.com/v0/b/amia-cis-dev.appspot.com/o/media%2Fimages%2Fopengraph%2F1200x600%2Fog_bulletins_1200.png?alt=media&token=54e900b0-cb13-4f0f-9418-b8052580ffeb","path":"https://amia-cis.github.io/bulletins"}},"__N_SSG":true}