{"pageProps":{"villages":[{"municipality":"Mandaon","lat":"12.261882","province":"Masbate","barangay":"Alas","association":"Alas Farmers Association","lon":"123.343322"},{"barangay":"Alayao","lat":"14.283999","association":"Cabibiroc-Alayao Farmers Association (CAFA)","province":"Camarines Norte","lon":"122.557276","municipality":"Capalonga"},{"association":"Biong Farmers Association","barangay":"Biong","lat":"13.77147","municipality":"Gigmoto","province":"Catanduanes","lon":"124.362139"},{"association":"Cagbunga Riverside Farmers Organization","municipality":"Pamplona","lat":"13.63714","lon":"123.106714","barangay":"Cagbunga","province":"Camarines Sur"},{"association":"Dinapa Farmers Association","barangay":"Dinapa","municipality":"Castilla","lon":"123.786951","lat":"12.908257","province":"Sorsogon"},{"lon":"123.620308","association":"Joroan Farmers and Fisherfollks Association","barangay":"Joroan","lat":"13.489628","municipality":"Tiwi","province":"Albay"},{"association":"Paracale Corn and Cassava Farmers Association","barangay":"Labnig","province":"Camarines Norte","lat":"14.269422","lon":"122.820835","municipality":"Paracale"},{"association":"AMIA (Asenso Marigondon Irrigators Association)","lat":"13.054393","municipality":"Pio Duran","province":"Albay","lon":"123.431072","barangay":"Marigondon"},{"association":"Peñafrancia Farmers and Fisherfolks Association","lon":"124.319818","province":"Catanduanes","barangay":"Peñafrancia","lat":"13.885986","municipality":"Viga"},{"lat":"12.193129","province":"Masbate","barangay":"Quezon","lon":"123.801844","association":" Quezon Small Farmers Association MaQueba (Magsaysay,Quezon and Badling","municipality":"Uson"},{"barangay":"San Isidro","lat":"13.028927","municipality":"Prieto Diaz","province":"Sorsogon","lon":"124.172603","association":"San Isidro Farmers Association"},{"lon":"123.817117","municipality":"Uson","lat":"12.190327","barangay":"San Mateo","association":"San Mateo Farmers Association","province":"Masbate"},{"lon":"123.046109","municipality":"Pamplona","province":"Camarines Sur","lat":"13.567574","association":"TARBA (Tampadong Agrarian Reform Beneficiaries Association)","barangay":"Tampadong"},{"barangay":"Veneracion","lon":"123.062039","province":"Camarines Sur","lat":"13.555508","municipality":"Pamplona","association":" VEVUFAI (Veneracion Urban Farmers Assocaition,Inc.)"}],"media":["https://firebasestorage.googleapis.com/v0/b/amia-cis-dev.appspot.com/o/media%2Fimages%2Fgallery%2Fth_clouds.png?alt=media&token=be6d403d-c2d7-4970-9be8-caa1ec484dd2","https://firebasestorage.googleapis.com/v0/b/amia-cis-dev.appspot.com/o/media%2Fimages%2Fgallery%2Fth_seasonal.png?alt=media&token=884f1234-bfc5-4927-91c7-006a90110a24","https://firebasestorage.googleapis.com/v0/b/amia-cis-dev.appspot.com/o/media%2Fimages%2Fgallery%2Fth_typhoon_03.png?alt=media&token=864f099e-29f8-4a17-b282-0af0c121254a"]},"__N_SSG":true}