{"pageProps":{"villages":[{"municipality":"Mandaon","barangay":"Alas","province":"Masbate","lat":"12.261882","lon":"123.343322","association":"Alas Farmers Association"},{"lat":"14.283999","association":"Cabibiroc-Alayao Farmers Association (CAFA)","municipality":"Capalonga","province":"Camarines Norte","barangay":"Alayao","lon":"122.557276"},{"lon":"124.362139","province":"Catanduanes","lat":"13.77147","association":"Biong Farmers Association","municipality":"Gigmoto","barangay":"Biong"},{"lon":"123.106714","province":"Camarines Sur","lat":"13.63714","barangay":"Cagbunga","association":"Cagbunga Riverside Farmers Organization","municipality":"Pamplona"},{"lon":"123.786951","municipality":"Castilla","province":"Sorsogon","barangay":"Dinapa","lat":"12.908257","association":"Dinapa Farmers Association"},{"municipality":"Tiwi","province":"Albay","lat":"13.489628","lon":"123.620308","association":"Joroan Farmers and Fisherfollks Association","barangay":"Joroan"},{"lat":"14.269422","barangay":"Labnig","municipality":"Paracale","lon":"122.820835","association":"Paracale Corn and Cassava Farmers Association","province":"Camarines Norte"},{"lon":"123.431072","barangay":"Marigondon","province":"Albay","municipality":"Pio Duran","lat":"13.054393","association":"AMIA (Asenso Marigondon Irrigators Association)"},{"lat":"13.885986","association":"Peñafrancia Farmers and Fisherfolks Association","municipality":"Viga","lon":"124.319818","province":"Catanduanes","barangay":"Peñafrancia"},{"barangay":"Quezon","province":"Masbate","lon":"123.801844","municipality":"Uson","lat":"12.193129","association":" Quezon Small Farmers Association MaQueba (Magsaysay,Quezon and Badling"},{"barangay":"San Isidro","province":"Sorsogon","lat":"13.028927","lon":"124.172603","association":"San Isidro Farmers Association","municipality":"Prieto Diaz"},{"municipality":"Uson","barangay":"San Mateo","lat":"12.190327","province":"Masbate","lon":"123.817117","association":"San Mateo Farmers Association"},{"association":"TARBA (Tampadong Agrarian Reform Beneficiaries Association)","municipality":"Pamplona","barangay":"Tampadong","lat":"13.567574","lon":"123.046109","province":"Camarines Sur"},{"province":"Camarines Sur","association":" VEVUFAI (Veneracion Urban Farmers Assocaition,Inc.)","municipality":"Pamplona","lon":"123.062039","lat":"13.555508","barangay":"Veneracion"}],"media":{"description":"Download Regional Seasonal Climate Outlook and Advisory PDF bulletins.","url":"https://firebasestorage.googleapis.com/v0/b/amia-cis-dev.appspot.com/o/media%2Fimages%2Fopengraph%2F1200x600%2Fog_bulletins_seasonal.png?alt=media&token=18cb4216-8ee9-4da8-b49c-f13fcfb025cb","path":"https://amia-cis.github.io/bulletins/seasonal-outlook"}},"__N_SSG":true}