{"pageProps":{"villages":[{"lat":"12.261882","municipality":"Mandaon","province":"Masbate","association":"Alas Farmers Association","barangay":"Alas","lon":"123.343322"},{"lat":"14.283999","association":"Cabibiroc-Alayao Farmers Association (CAFA)","municipality":"Capalonga","province":"Camarines Norte","lon":"122.557276","barangay":"Alayao"},{"association":"Biong Farmers Association","barangay":"Biong","municipality":"Gigmoto","lon":"124.362139","lat":"13.77147","province":"Catanduanes"},{"barangay":"Cagbunga","municipality":"Pamplona","province":"Camarines Sur","association":"Cagbunga Riverside Farmers Organization","lon":"123.106714","lat":"13.63714"},{"lat":"12.908257","municipality":"Castilla","association":"Dinapa Farmers Association","province":"Sorsogon","lon":"123.786951","barangay":"Dinapa"},{"lat":"13.489628","municipality":"Tiwi","barangay":"Joroan","association":"Joroan Farmers and Fisherfollks Association","province":"Albay","lon":"123.620308"},{"lon":"122.820835","lat":"14.269422","municipality":"Paracale","barangay":"Labnig","province":"Camarines Norte","association":"Paracale Corn and Cassava Farmers Association"},{"province":"Albay","lat":"13.054393","municipality":"Pio Duran","lon":"123.431072","barangay":"Marigondon","association":"AMIA (Asenso Marigondon Irrigators Association)"},{"association":"Peñafrancia Farmers and Fisherfolks Association","barangay":"Peñafrancia","municipality":"Viga","lat":"13.885986","lon":"124.319818","province":"Catanduanes"},{"province":"Masbate","association":" Quezon Small Farmers Association MaQueba (Magsaysay,Quezon and Badling","lat":"12.193129","municipality":"Uson","barangay":"Quezon","lon":"123.801844"},{"lon":"124.172603","barangay":"San Isidro","association":"San Isidro Farmers Association","lat":"13.028927","province":"Sorsogon","municipality":"Prieto Diaz"},{"lon":"123.817117","barangay":"San Mateo","municipality":"Uson","province":"Masbate","lat":"12.190327","association":"San Mateo Farmers Association"},{"municipality":"Pamplona","province":"Camarines Sur","lon":"123.046109","association":"TARBA (Tampadong Agrarian Reform Beneficiaries Association)","lat":"13.567574","barangay":"Tampadong"},{"province":"Camarines Sur","lat":"13.555508","barangay":"Veneracion","lon":"123.062039","association":" VEVUFAI (Veneracion Urban Farmers Assocaition,Inc.)","municipality":"Pamplona"}],"media":{"description":"Download 10-Day Farm Weather Outlook PDF bulletins.","url":"https://firebasestorage.googleapis.com/v0/b/amia-cis-dev.appspot.com/o/media%2Fimages%2Fopengraph%2F1200x600%2Fog_bulletins_10day.png?alt=media&token=bb3599af-0756-4c3b-8f02-04397e388125","path":"https://amia-cis.github.io/bulletins/weather"}},"__N_SSG":true}