{"pageProps":{"villages":[{"municipality":"Mandaon","lon":"123.343322","barangay":"Alas","lat":"12.261882","province":"Masbate","association":"Alas Farmers Association"},{"barangay":"Alayao","association":"Cabibiroc-Alayao Farmers Association (CAFA)","province":"Camarines Norte","municipality":"Capalonga","lat":"14.283999","lon":"122.557276"},{"lon":"124.362139","province":"Catanduanes","municipality":"Gigmoto","lat":"13.77147","barangay":"Biong","association":"Biong Farmers Association"},{"municipality":"Pamplona","lon":"123.106714","lat":"13.63714","association":"Cagbunga Riverside Farmers Organization","province":"Camarines Sur","barangay":"Cagbunga"},{"barangay":"Dinapa","lon":"123.786951","province":"Sorsogon","association":"Dinapa Farmers Association","municipality":"Castilla","lat":"12.908257"},{"lat":"13.489628","municipality":"Tiwi","province":"Albay","barangay":"Joroan","lon":"123.620308","association":"Joroan Farmers and Fisherfollks Association"},{"barangay":"Labnig","lat":"14.269422","lon":"122.820835","municipality":"Paracale","province":"Camarines Norte","association":"Paracale Corn and Cassava Farmers Association"},{"barangay":"Marigondon","lon":"123.431072","province":"Albay","municipality":"Pio Duran","lat":"13.054393","association":"AMIA (Asenso Marigondon Irrigators Association)"},{"barangay":"Peñafrancia","lon":"124.319818","municipality":"Viga","province":"Catanduanes","lat":"13.885986","association":"Peñafrancia Farmers and Fisherfolks Association"},{"association":" Quezon Small Farmers Association MaQueba (Magsaysay,Quezon and Badling","lat":"12.193129","province":"Masbate","barangay":"Quezon","municipality":"Uson","lon":"123.801844"},{"association":"San Isidro Farmers Association","barangay":"San Isidro","province":"Sorsogon","lon":"124.172603","lat":"13.028927","municipality":"Prieto Diaz"},{"lon":"123.817117","lat":"12.190327","barangay":"San Mateo","municipality":"Uson","province":"Masbate","association":"San Mateo Farmers Association"},{"lon":"123.046109","association":"TARBA (Tampadong Agrarian Reform Beneficiaries Association)","lat":"13.567574","municipality":"Pamplona","province":"Camarines Sur","barangay":"Tampadong"},{"lat":"13.555508","province":"Camarines Sur","lon":"123.062039","association":" VEVUFAI (Veneracion Urban Farmers Assocaition,Inc.)","barangay":"Veneracion","municipality":"Pamplona"}],"media":{"description":"Agro-Climatic Advisory Portal-Bicol (ACAP-BICOL) serves as a centralized hub for the development of Climate Information Services (CIS) in the Bicol Region. It contains relevant weather and climate information which can be used in developing tailored advisories and crop recommendations.","url":"https://firebasestorage.googleapis.com/v0/b/amia-cis-dev.appspot.com/o/media%2Fimages%2Fopengraph%2F1200x600%2Fog_home_1200.png?alt=media&token=51f9241c-45da-456e-9906-677c2f8fe93a","path":"https://amia-cis.github.io"}},"__N_SSG":true}