{"pageProps":{"villages":[{"lat":"12.261882","lon":"123.343322","barangay":"Alas","province":"Masbate","municipality":"Mandaon","association":"Alas Farmers Association"},{"association":"Cabibiroc-Alayao Farmers Association (CAFA)","lon":"122.557276","lat":"14.283999","province":"Camarines Norte","municipality":"Capalonga","barangay":"Alayao"},{"lon":"124.362139","association":"Biong Farmers Association","lat":"13.77147","municipality":"Gigmoto","province":"Catanduanes","barangay":"Biong"},{"association":"Cagbunga Riverside Farmers Organization","municipality":"Pamplona","province":"Camarines Sur","lat":"13.63714","barangay":"Cagbunga","lon":"123.106714"},{"municipality":"Castilla","lon":"123.786951","barangay":"Dinapa","association":"Dinapa Farmers Association","lat":"12.908257","province":"Sorsogon"},{"lon":"123.620308","lat":"13.489628","municipality":"Tiwi","province":"Albay","barangay":"Joroan","association":"Joroan Farmers and Fisherfollks Association"},{"province":"Camarines Norte","barangay":"Labnig","lat":"14.269422","lon":"122.820835","association":"Paracale Corn and Cassava Farmers Association","municipality":"Paracale"},{"association":"AMIA (Asenso Marigondon Irrigators Association)","lat":"13.054393","barangay":"Marigondon","lon":"123.431072","province":"Albay","municipality":"Pio Duran"},{"lat":"13.885986","municipality":"Viga","province":"Catanduanes","association":"Peñafrancia Farmers and Fisherfolks Association","barangay":"Peñafrancia","lon":"124.319818"},{"lon":"123.801844","barangay":"Quezon","municipality":"Uson","association":" Quezon Small Farmers Association MaQueba (Magsaysay,Quezon and Badling","province":"Masbate","lat":"12.193129"},{"municipality":"Prieto Diaz","province":"Sorsogon","barangay":"San Isidro","lon":"124.172603","association":"San Isidro Farmers Association","lat":"13.028927"},{"municipality":"Uson","barangay":"San Mateo","lat":"12.190327","lon":"123.817117","association":"San Mateo Farmers Association","province":"Masbate"},{"barangay":"Tampadong","province":"Camarines Sur","lon":"123.046109","municipality":"Pamplona","association":"TARBA (Tampadong Agrarian Reform Beneficiaries Association)","lat":"13.567574"},{"lat":"13.555508","lon":"123.062039","association":" VEVUFAI (Veneracion Urban Farmers Assocaition,Inc.)","municipality":"Pamplona","province":"Camarines Sur","barangay":"Veneracion"}],"media":["https://firebasestorage.googleapis.com/v0/b/amia-cis-dev.appspot.com/o/media%2Fimages%2Fgallery%2Fth_clouds.png?alt=media&token=be6d403d-c2d7-4970-9be8-caa1ec484dd2","https://firebasestorage.googleapis.com/v0/b/amia-cis-dev.appspot.com/o/media%2Fimages%2Fgallery%2Fth_seasonal.png?alt=media&token=884f1234-bfc5-4927-91c7-006a90110a24","https://firebasestorage.googleapis.com/v0/b/amia-cis-dev.appspot.com/o/media%2Fimages%2Fgallery%2Fth_typhoon_03.png?alt=media&token=864f099e-29f8-4a17-b282-0af0c121254a"]},"__N_SSG":true}