{"pageProps":{"villages":[{"lon":"123.343322","association":"Alas Farmers Association","municipality":"Mandaon","lat":"12.261882","barangay":"Alas","province":"Masbate"},{"lat":"14.283999","association":"Cabibiroc-Alayao Farmers Association (CAFA)","municipality":"Capalonga","barangay":"Alayao","lon":"122.557276","province":"Camarines Norte"},{"barangay":"Biong","municipality":"Gigmoto","province":"Catanduanes","association":"Biong Farmers Association","lon":"124.362139","lat":"13.77147"},{"barangay":"Cagbunga","lat":"13.63714","lon":"123.106714","province":"Camarines Sur","municipality":"Pamplona","association":"Cagbunga Riverside Farmers Organization"},{"association":"Dinapa Farmers Association","municipality":"Castilla","lon":"123.786951","province":"Sorsogon","lat":"12.908257","barangay":"Dinapa"},{"lat":"13.489628","municipality":"Tiwi","association":"Joroan Farmers and Fisherfollks Association","province":"Albay","lon":"123.620308","barangay":"Joroan"},{"municipality":"Paracale","province":"Camarines Norte","lat":"14.269422","association":"Paracale Corn and Cassava Farmers Association","barangay":"Labnig","lon":"122.820835"},{"barangay":"Marigondon","association":"AMIA (Asenso Marigondon Irrigators Association)","lat":"13.054393","municipality":"Pio Duran","province":"Albay","lon":"123.431072"},{"municipality":"Viga","association":"Peñafrancia Farmers and Fisherfolks Association","lat":"13.885986","barangay":"Peñafrancia","province":"Catanduanes","lon":"124.319818"},{"lat":"12.193129","lon":"123.801844","province":"Masbate","association":" Quezon Small Farmers Association MaQueba (Magsaysay,Quezon and Badling","municipality":"Uson","barangay":"Quezon"},{"province":"Sorsogon","municipality":"Prieto Diaz","lon":"124.172603","association":"San Isidro Farmers Association","barangay":"San Isidro","lat":"13.028927"},{"municipality":"Uson","lon":"123.817117","association":"San Mateo Farmers Association","province":"Masbate","lat":"12.190327","barangay":"San Mateo"},{"association":"TARBA (Tampadong Agrarian Reform Beneficiaries Association)","barangay":"Tampadong","province":"Camarines Sur","municipality":"Pamplona","lon":"123.046109","lat":"13.567574"},{"association":" VEVUFAI (Veneracion Urban Farmers Assocaition,Inc.)","barangay":"Veneracion","province":"Camarines Sur","lat":"13.555508","lon":"123.062039","municipality":"Pamplona"}]},"__N_SSG":true}