{"pageProps":{"villages":[{"lon":"123.343322","province":"Masbate","lat":"12.261882","association":"Alas Farmers Association","barangay":"Alas","municipality":"Mandaon"},{"lon":"122.557276","municipality":"Capalonga","lat":"14.283999","province":"Camarines Norte","barangay":"Alayao","association":"Cabibiroc-Alayao Farmers Association (CAFA)"},{"municipality":"Gigmoto","association":"Biong Farmers Association","lat":"13.77147","lon":"124.362139","barangay":"Biong","province":"Catanduanes"},{"barangay":"Cagbunga","lon":"123.106714","municipality":"Pamplona","lat":"13.63714","province":"Camarines Sur","association":"Cagbunga Riverside Farmers Organization"},{"association":"Dinapa Farmers Association","lon":"123.786951","lat":"12.908257","barangay":"Dinapa","municipality":"Castilla","province":"Sorsogon"},{"lon":"123.620308","barangay":"Joroan","lat":"13.489628","province":"Albay","association":"Joroan Farmers and Fisherfollks Association","municipality":"Tiwi"},{"municipality":"Paracale","lon":"122.820835","association":"Paracale Corn and Cassava Farmers Association","lat":"14.269422","barangay":"Labnig","province":"Camarines Norte"},{"barangay":"Marigondon","lon":"123.431072","municipality":"Pio Duran","lat":"13.054393","association":"AMIA (Asenso Marigondon Irrigators Association)","province":"Albay"},{"lat":"13.885986","province":"Catanduanes","association":"Peñafrancia Farmers and Fisherfolks Association","barangay":"Peñafrancia","municipality":"Viga","lon":"124.319818"},{"barangay":"Quezon","province":"Masbate","lon":"123.801844","lat":"12.193129","association":" Quezon Small Farmers Association MaQueba (Magsaysay,Quezon and Badling","municipality":"Uson"},{"association":"San Isidro Farmers Association","barangay":"San Isidro","municipality":"Prieto Diaz","lat":"13.028927","province":"Sorsogon","lon":"124.172603"},{"municipality":"Uson","lon":"123.817117","barangay":"San Mateo","association":"San Mateo Farmers Association","province":"Masbate","lat":"12.190327"},{"lon":"123.046109","barangay":"Tampadong","lat":"13.567574","province":"Camarines Sur","association":"TARBA (Tampadong Agrarian Reform Beneficiaries Association)","municipality":"Pamplona"},{"lon":"123.062039","barangay":"Veneracion","association":" VEVUFAI (Veneracion Urban Farmers Assocaition,Inc.)","province":"Camarines Sur","lat":"13.555508","municipality":"Pamplona"}]},"__N_SSG":true}