{"pageProps":{"villages":[{"association":"Alas Farmers Association","municipality":"Mandaon","province":"Masbate","lon":"123.343322","barangay":"Alas","lat":"12.261882"},{"lat":"14.283999","barangay":"Alayao","province":"Camarines Norte","association":"Cabibiroc-Alayao Farmers Association (CAFA)","lon":"122.557276","municipality":"Capalonga"},{"lat":"13.77147","lon":"124.362139","barangay":"Biong","province":"Catanduanes","association":"Biong Farmers Association","municipality":"Gigmoto"},{"lon":"123.106714","association":"Cagbunga Riverside Farmers Organization","lat":"13.63714","municipality":"Pamplona","province":"Camarines Sur","barangay":"Cagbunga"},{"municipality":"Castilla","barangay":"Dinapa","lat":"12.908257","association":"Dinapa Farmers Association","province":"Sorsogon","lon":"123.786951"},{"province":"Albay","barangay":"Joroan","lon":"123.620308","lat":"13.489628","municipality":"Tiwi","association":"Joroan Farmers and Fisherfollks Association"},{"association":"Paracale Corn and Cassava Farmers Association","barangay":"Labnig","lon":"122.820835","province":"Camarines Norte","lat":"14.269422","municipality":"Paracale"},{"association":"AMIA (Asenso Marigondon Irrigators Association)","lon":"123.431072","barangay":"Marigondon","municipality":"Pio Duran","province":"Albay","lat":"13.054393"},{"province":"Catanduanes","municipality":"Viga","lon":"124.319818","barangay":"Peñafrancia","association":"Peñafrancia Farmers and Fisherfolks Association","lat":"13.885986"},{"association":" Quezon Small Farmers Association MaQueba (Magsaysay,Quezon and Badling","barangay":"Quezon","lon":"123.801844","municipality":"Uson","lat":"12.193129","province":"Masbate"},{"association":"San Isidro Farmers Association","province":"Sorsogon","barangay":"San Isidro","lon":"124.172603","lat":"13.028927","municipality":"Prieto Diaz"},{"association":"San Mateo Farmers Association","province":"Masbate","lat":"12.190327","lon":"123.817117","barangay":"San Mateo","municipality":"Uson"},{"association":"TARBA (Tampadong Agrarian Reform Beneficiaries Association)","municipality":"Pamplona","lon":"123.046109","lat":"13.567574","province":"Camarines Sur","barangay":"Tampadong"},{"lat":"13.555508","province":"Camarines Sur","municipality":"Pamplona","barangay":"Veneracion","lon":"123.062039","association":" VEVUFAI (Veneracion Urban Farmers Assocaition,Inc.)"}]},"__N_SSG":true}