{"pageProps":{"villages":[{"barangay":"Alas","lat":"12.261882","province":"Masbate","association":"Alas Farmers Association","municipality":"Mandaon","lon":"123.343322"},{"lat":"14.283999","association":"Cabibiroc-Alayao Farmers Association (CAFA)","province":"Camarines Norte","barangay":"Alayao","municipality":"Capalonga","lon":"122.557276"},{"barangay":"Biong","municipality":"Gigmoto","association":"Biong Farmers Association","lat":"13.77147","lon":"124.362139","province":"Catanduanes"},{"association":"Cagbunga Riverside Farmers Organization","barangay":"Cagbunga","province":"Camarines Sur","lat":"13.63714","municipality":"Pamplona","lon":"123.106714"},{"lon":"123.786951","barangay":"Dinapa","province":"Sorsogon","lat":"12.908257","association":"Dinapa Farmers Association","municipality":"Castilla"},{"lon":"123.620308","municipality":"Tiwi","barangay":"Joroan","lat":"13.489628","province":"Albay","association":"Joroan Farmers and Fisherfollks Association"},{"province":"Camarines Norte","municipality":"Paracale","lon":"122.820835","association":"Paracale Corn and Cassava Farmers Association","barangay":"Labnig","lat":"14.269422"},{"lat":"13.054393","province":"Albay","lon":"123.431072","association":"AMIA (Asenso Marigondon Irrigators Association)","barangay":"Marigondon","municipality":"Pio Duran"},{"barangay":"Peñafrancia","municipality":"Viga","province":"Catanduanes","lon":"124.319818","lat":"13.885986","association":"Peñafrancia Farmers and Fisherfolks Association"},{"barangay":"Quezon","lat":"12.193129","lon":"123.801844","municipality":"Uson","association":" Quezon Small Farmers Association MaQueba (Magsaysay,Quezon and Badling","province":"Masbate"},{"municipality":"Prieto Diaz","province":"Sorsogon","association":"San Isidro Farmers Association","lat":"13.028927","lon":"124.172603","barangay":"San Isidro"},{"barangay":"San Mateo","municipality":"Uson","lat":"12.190327","lon":"123.817117","association":"San Mateo Farmers Association","province":"Masbate"},{"barangay":"Tampadong","lat":"13.567574","association":"TARBA (Tampadong Agrarian Reform Beneficiaries Association)","municipality":"Pamplona","province":"Camarines Sur","lon":"123.046109"},{"province":"Camarines Sur","lon":"123.062039","barangay":"Veneracion","association":" VEVUFAI (Veneracion Urban Farmers Assocaition,Inc.)","lat":"13.555508","municipality":"Pamplona"}],"media":["https://firebasestorage.googleapis.com/v0/b/amia-cis-dev.appspot.com/o/media%2Fimages%2Fgallery%2Fth_clouds.png?alt=media&token=be6d403d-c2d7-4970-9be8-caa1ec484dd2","https://firebasestorage.googleapis.com/v0/b/amia-cis-dev.appspot.com/o/media%2Fimages%2Fgallery%2Fth_seasonal.png?alt=media&token=884f1234-bfc5-4927-91c7-006a90110a24","https://firebasestorage.googleapis.com/v0/b/amia-cis-dev.appspot.com/o/media%2Fimages%2Fgallery%2Fth_typhoon_03.png?alt=media&token=864f099e-29f8-4a17-b282-0af0c121254a"],"info":{"description":"View or download bulletin PDF recommendations for the Seasonal and 10-Day Weather Outlook","url":"https://firebasestorage.googleapis.com/v0/b/amia-cis-dev.appspot.com/o/media%2Fimages%2Fopengraph%2F1200x600%2Fog_bulletins_1200.png?alt=media&token=54e900b0-cb13-4f0f-9418-b8052580ffeb","path":"https://amia-cis.github.io/bulletins"}},"__N_SSG":true}