{"pageProps":{"villages":[{"barangay":"Alas","lat":"12.261882","lon":"123.343322","association":"Alas Farmers Association","province":"Masbate","municipality":"Mandaon"},{"association":"Cabibiroc-Alayao Farmers Association (CAFA)","province":"Camarines Norte","barangay":"Alayao","municipality":"Capalonga","lat":"14.283999","lon":"122.557276"},{"municipality":"Gigmoto","lat":"13.77147","association":"Biong Farmers Association","lon":"124.362139","barangay":"Biong","province":"Catanduanes"},{"barangay":"Cagbunga","municipality":"Pamplona","association":"Cagbunga Riverside Farmers Organization","lat":"13.63714","province":"Camarines Sur","lon":"123.106714"},{"association":"Dinapa Farmers Association","province":"Sorsogon","municipality":"Castilla","lat":"12.908257","barangay":"Dinapa","lon":"123.786951"},{"province":"Albay","lat":"13.489628","municipality":"Tiwi","lon":"123.620308","barangay":"Joroan","association":"Joroan Farmers and Fisherfollks Association"},{"lat":"14.269422","lon":"122.820835","association":"Paracale Corn and Cassava Farmers Association","barangay":"Labnig","municipality":"Paracale","province":"Camarines Norte"},{"province":"Albay","association":"AMIA (Asenso Marigondon Irrigators Association)","lon":"123.431072","lat":"13.054393","barangay":"Marigondon","municipality":"Pio Duran"},{"lat":"13.885986","province":"Catanduanes","lon":"124.319818","municipality":"Viga","barangay":"Peñafrancia","association":"Peñafrancia Farmers and Fisherfolks Association"},{"lon":"123.801844","province":"Masbate","barangay":"Quezon","association":" Quezon Small Farmers Association MaQueba (Magsaysay,Quezon and Badling","municipality":"Uson","lat":"12.193129"},{"barangay":"San Isidro","association":"San Isidro Farmers Association","province":"Sorsogon","lon":"124.172603","lat":"13.028927","municipality":"Prieto Diaz"},{"province":"Masbate","lon":"123.817117","municipality":"Uson","association":"San Mateo Farmers Association","lat":"12.190327","barangay":"San Mateo"},{"lat":"13.567574","province":"Camarines Sur","lon":"123.046109","barangay":"Tampadong","municipality":"Pamplona","association":"TARBA (Tampadong Agrarian Reform Beneficiaries Association)"},{"province":"Camarines Sur","lon":"123.062039","association":" VEVUFAI (Veneracion Urban Farmers Assocaition,Inc.)","municipality":"Pamplona","barangay":"Veneracion","lat":"13.555508"}],"media":{"description":"Agro-Climatic Advisory Portal-Bicol (ACAP-BICOL) serves as a centralized hub for the development of Climate Information Services (CIS) in the Bicol Region. It contains relevant weather and climate information which can be used in developing tailored advisories and crop recommendations.","url":"https://firebasestorage.googleapis.com/v0/b/amia-cis-dev.appspot.com/o/media%2Fimages%2Fopengraph%2F1200x600%2Fog_home_1200.png?alt=media&token=51f9241c-45da-456e-9906-677c2f8fe93a","path":"https://amia-cis.github.io"}},"__N_SSG":true}