{"pageProps":{"villages":[{"lat":"12.261882","lon":"123.343322","barangay":"Alas","municipality":"Mandaon","association":"Alas Farmers Association","province":"Masbate"},{"lon":"122.557276","lat":"14.283999","municipality":"Capalonga","province":"Camarines Norte","association":"Cabibiroc-Alayao Farmers Association (CAFA)","barangay":"Alayao"},{"lon":"124.362139","municipality":"Gigmoto","association":"Biong Farmers Association","lat":"13.77147","barangay":"Biong","province":"Catanduanes"},{"province":"Camarines Sur","lon":"123.106714","association":"Cagbunga Riverside Farmers Organization","barangay":"Cagbunga","municipality":"Pamplona","lat":"13.63714"},{"association":"Dinapa Farmers Association","municipality":"Castilla","barangay":"Dinapa","lon":"123.786951","province":"Sorsogon","lat":"12.908257"},{"province":"Albay","barangay":"Joroan","municipality":"Tiwi","lon":"123.620308","lat":"13.489628","association":"Joroan Farmers and Fisherfollks Association"},{"barangay":"Labnig","association":"Paracale Corn and Cassava Farmers Association","province":"Camarines Norte","lat":"14.269422","municipality":"Paracale","lon":"122.820835"},{"municipality":"Pio Duran","province":"Albay","lon":"123.431072","barangay":"Marigondon","association":"AMIA (Asenso Marigondon Irrigators Association)","lat":"13.054393"},{"association":"Peñafrancia Farmers and Fisherfolks Association","province":"Catanduanes","lon":"124.319818","lat":"13.885986","municipality":"Viga","barangay":"Peñafrancia"},{"municipality":"Uson","lat":"12.193129","province":"Masbate","barangay":"Quezon","association":" Quezon Small Farmers Association MaQueba (Magsaysay,Quezon and Badling","lon":"123.801844"},{"lon":"124.172603","province":"Sorsogon","municipality":"Prieto Diaz","barangay":"San Isidro","lat":"13.028927","association":"San Isidro Farmers Association"},{"association":"San Mateo Farmers Association","province":"Masbate","barangay":"San Mateo","lon":"123.817117","municipality":"Uson","lat":"12.190327"},{"association":"TARBA (Tampadong Agrarian Reform Beneficiaries Association)","municipality":"Pamplona","lon":"123.046109","lat":"13.567574","province":"Camarines Sur","barangay":"Tampadong"},{"province":"Camarines Sur","lon":"123.062039","barangay":"Veneracion","municipality":"Pamplona","lat":"13.555508","association":" VEVUFAI (Veneracion Urban Farmers Assocaition,Inc.)"}],"media":{"description":"Download Special Weather Forecast PDF bulletins.","url":"https://firebasestorage.googleapis.com/v0/b/amia-cis-dev.appspot.com/o/media%2Fimages%2Fopengraph%2F1200x600%2Fog_bulletins_typhoon.png?alt=media&token=2b5a0bba-0272-463e-aed3-1d0fc975646f","path":"https://amia-cis.github.io/bulletins/special-weather-forecast"}},"__N_SSG":true}