{"pageProps":{"villages":[{"lat":"12.261882","barangay":"Alas","province":"Masbate","association":"Alas Farmers Association","municipality":"Mandaon","lon":"123.343322"},{"municipality":"Capalonga","lat":"14.283999","lon":"122.557276","barangay":"Alayao","association":"Cabibiroc-Alayao Farmers Association (CAFA)","province":"Camarines Norte"},{"lat":"13.77147","association":"Biong Farmers Association","lon":"124.362139","barangay":"Biong","municipality":"Gigmoto","province":"Catanduanes"},{"lon":"123.106714","association":"Cagbunga Riverside Farmers Organization","lat":"13.63714","province":"Camarines Sur","municipality":"Pamplona","barangay":"Cagbunga"},{"association":"Dinapa Farmers Association","lat":"12.908257","province":"Sorsogon","lon":"123.786951","municipality":"Castilla","barangay":"Dinapa"},{"province":"Albay","lat":"13.489628","association":"Joroan Farmers and Fisherfollks Association","municipality":"Tiwi","lon":"123.620308","barangay":"Joroan"},{"province":"Camarines Norte","association":"Paracale Corn and Cassava Farmers Association","municipality":"Paracale","lon":"122.820835","barangay":"Labnig","lat":"14.269422"},{"lat":"13.054393","municipality":"Pio Duran","association":"AMIA (Asenso Marigondon Irrigators Association)","barangay":"Marigondon","province":"Albay","lon":"123.431072"},{"lat":"13.885986","association":"Peñafrancia Farmers and Fisherfolks Association","municipality":"Viga","province":"Catanduanes","barangay":"Peñafrancia","lon":"124.319818"},{"municipality":"Uson","lon":"123.801844","province":"Masbate","association":" Quezon Small Farmers Association MaQueba (Magsaysay,Quezon and Badling","barangay":"Quezon","lat":"12.193129"},{"barangay":"San Isidro","lat":"13.028927","municipality":"Prieto Diaz","province":"Sorsogon","lon":"124.172603","association":"San Isidro Farmers Association"},{"barangay":"San Mateo","association":"San Mateo Farmers Association","lat":"12.190327","municipality":"Uson","province":"Masbate","lon":"123.817117"},{"province":"Camarines Sur","barangay":"Tampadong","lon":"123.046109","municipality":"Pamplona","lat":"13.567574","association":"TARBA (Tampadong Agrarian Reform Beneficiaries Association)"},{"association":" VEVUFAI (Veneracion Urban Farmers Assocaition,Inc.)","municipality":"Pamplona","barangay":"Veneracion","province":"Camarines Sur","lat":"13.555508","lon":"123.062039"}],"media":["https://firebasestorage.googleapis.com/v0/b/amia-cis-dev.appspot.com/o/media%2Fimages%2Fgallery%2Fth_clouds.png?alt=media&token=be6d403d-c2d7-4970-9be8-caa1ec484dd2","https://firebasestorage.googleapis.com/v0/b/amia-cis-dev.appspot.com/o/media%2Fimages%2Fgallery%2Fth_seasonal.png?alt=media&token=884f1234-bfc5-4927-91c7-006a90110a24","https://firebasestorage.googleapis.com/v0/b/amia-cis-dev.appspot.com/o/media%2Fimages%2Fgallery%2Fth_typhoon_03.png?alt=media&token=864f099e-29f8-4a17-b282-0af0c121254a"]},"__N_SSG":true}