{"pageProps":{"villages":[{"province":"Masbate","barangay":"Alas","lon":"123.343322","municipality":"Mandaon","association":"Alas Farmers Association","lat":"12.261882"},{"association":"Cabibiroc-Alayao Farmers Association (CAFA)","barangay":"Alayao","lat":"14.283999","municipality":"Capalonga","province":"Camarines Norte","lon":"122.557276"},{"lon":"124.362139","barangay":"Biong","lat":"13.77147","municipality":"Gigmoto","province":"Catanduanes","association":"Biong Farmers Association"},{"municipality":"Pamplona","lon":"123.106714","barangay":"Cagbunga","lat":"13.63714","province":"Camarines Sur","association":"Cagbunga Riverside Farmers Organization"},{"province":"Sorsogon","municipality":"Castilla","barangay":"Dinapa","association":"Dinapa Farmers Association","lat":"12.908257","lon":"123.786951"},{"barangay":"Joroan","association":"Joroan Farmers and Fisherfollks Association","province":"Albay","lat":"13.489628","lon":"123.620308","municipality":"Tiwi"},{"lon":"122.820835","province":"Camarines Norte","municipality":"Paracale","association":"Paracale Corn and Cassava Farmers Association","barangay":"Labnig","lat":"14.269422"},{"lat":"13.054393","lon":"123.431072","barangay":"Marigondon","municipality":"Pio Duran","province":"Albay","association":"AMIA (Asenso Marigondon Irrigators Association)"},{"lat":"13.885986","lon":"124.319818","association":"Peñafrancia Farmers and Fisherfolks Association","barangay":"Peñafrancia","province":"Catanduanes","municipality":"Viga"},{"lat":"12.193129","barangay":"Quezon","municipality":"Uson","lon":"123.801844","association":" Quezon Small Farmers Association MaQueba (Magsaysay,Quezon and Badling","province":"Masbate"},{"province":"Sorsogon","lat":"13.028927","lon":"124.172603","municipality":"Prieto Diaz","association":"San Isidro Farmers Association","barangay":"San Isidro"},{"association":"San Mateo Farmers Association","lon":"123.817117","lat":"12.190327","province":"Masbate","barangay":"San Mateo","municipality":"Uson"},{"lon":"123.046109","association":"TARBA (Tampadong Agrarian Reform Beneficiaries Association)","lat":"13.567574","barangay":"Tampadong","municipality":"Pamplona","province":"Camarines Sur"},{"association":" VEVUFAI (Veneracion Urban Farmers Assocaition,Inc.)","lon":"123.062039","province":"Camarines Sur","barangay":"Veneracion","municipality":"Pamplona","lat":"13.555508"}],"media":{"description":"Download Regional Seasonal Climate Outlook and Advisory PDF bulletins.","url":"https://firebasestorage.googleapis.com/v0/b/amia-cis-dev.appspot.com/o/media%2Fimages%2Fopengraph%2F1200x600%2Fog_bulletins_seasonal.png?alt=media&token=18cb4216-8ee9-4da8-b49c-f13fcfb025cb","path":"https://amia-cis.github.io/bulletins/seasonal-outlook"}},"__N_SSG":true}