{"pageProps":{"villages":[{"province":"Masbate","lat":"12.261882","association":"Alas Farmers Association","lon":"123.343322","barangay":"Alas","municipality":"Mandaon"},{"barangay":"Alayao","lat":"14.283999","association":"Cabibiroc-Alayao Farmers Association (CAFA)","province":"Camarines Norte","lon":"122.557276","municipality":"Capalonga"},{"municipality":"Gigmoto","barangay":"Biong","lon":"124.362139","association":"Biong Farmers Association","lat":"13.77147","province":"Catanduanes"},{"province":"Camarines Sur","association":"Cagbunga Riverside Farmers Organization","lat":"13.63714","barangay":"Cagbunga","municipality":"Pamplona","lon":"123.106714"},{"lon":"123.786951","province":"Sorsogon","barangay":"Dinapa","lat":"12.908257","association":"Dinapa Farmers Association","municipality":"Castilla"},{"province":"Albay","association":"Joroan Farmers and Fisherfollks Association","municipality":"Tiwi","barangay":"Joroan","lat":"13.489628","lon":"123.620308"},{"lat":"14.269422","municipality":"Paracale","barangay":"Labnig","province":"Camarines Norte","association":"Paracale Corn and Cassava Farmers Association","lon":"122.820835"},{"lon":"123.431072","barangay":"Marigondon","lat":"13.054393","municipality":"Pio Duran","province":"Albay","association":"AMIA (Asenso Marigondon Irrigators Association)"},{"association":"Peñafrancia Farmers and Fisherfolks Association","lon":"124.319818","lat":"13.885986","municipality":"Viga","barangay":"Peñafrancia","province":"Catanduanes"},{"municipality":"Uson","province":"Masbate","barangay":"Quezon","association":" Quezon Small Farmers Association MaQueba (Magsaysay,Quezon and Badling","lon":"123.801844","lat":"12.193129"},{"barangay":"San Isidro","lat":"13.028927","municipality":"Prieto Diaz","association":"San Isidro Farmers Association","lon":"124.172603","province":"Sorsogon"},{"association":"San Mateo Farmers Association","barangay":"San Mateo","lon":"123.817117","province":"Masbate","municipality":"Uson","lat":"12.190327"},{"province":"Camarines Sur","municipality":"Pamplona","lon":"123.046109","barangay":"Tampadong","association":"TARBA (Tampadong Agrarian Reform Beneficiaries Association)","lat":"13.567574"},{"lon":"123.062039","province":"Camarines Sur","association":" VEVUFAI (Veneracion Urban Farmers Assocaition,Inc.)","barangay":"Veneracion","municipality":"Pamplona","lat":"13.555508"}]},"__N_SSG":true}