{"pageProps":{"villages":[{"province":"Masbate","lat":"12.261882","barangay":"Alas","municipality":"Mandaon","lon":"123.343322","association":"Alas Farmers Association"},{"association":"Cabibiroc-Alayao Farmers Association (CAFA)","lon":"122.557276","barangay":"Alayao","lat":"14.283999","municipality":"Capalonga","province":"Camarines Norte"},{"municipality":"Gigmoto","association":"Biong Farmers Association","lat":"13.77147","lon":"124.362139","province":"Catanduanes","barangay":"Biong"},{"barangay":"Cagbunga","province":"Camarines Sur","association":"Cagbunga Riverside Farmers Organization","lon":"123.106714","municipality":"Pamplona","lat":"13.63714"},{"lat":"12.908257","barangay":"Dinapa","association":"Dinapa Farmers Association","lon":"123.786951","municipality":"Castilla","province":"Sorsogon"},{"lon":"123.620308","barangay":"Joroan","association":"Joroan Farmers and Fisherfollks Association","lat":"13.489628","province":"Albay","municipality":"Tiwi"},{"lat":"14.269422","municipality":"Paracale","association":"Paracale Corn and Cassava Farmers Association","barangay":"Labnig","lon":"122.820835","province":"Camarines Norte"},{"municipality":"Pio Duran","association":"AMIA (Asenso Marigondon Irrigators Association)","lat":"13.054393","barangay":"Marigondon","lon":"123.431072","province":"Albay"},{"barangay":"Peñafrancia","municipality":"Viga","association":"Peñafrancia Farmers and Fisherfolks Association","lon":"124.319818","lat":"13.885986","province":"Catanduanes"},{"province":"Masbate","association":" Quezon Small Farmers Association MaQueba (Magsaysay,Quezon and Badling","lon":"123.801844","municipality":"Uson","lat":"12.193129","barangay":"Quezon"},{"municipality":"Prieto Diaz","barangay":"San Isidro","association":"San Isidro Farmers Association","lat":"13.028927","province":"Sorsogon","lon":"124.172603"},{"lon":"123.817117","lat":"12.190327","barangay":"San Mateo","association":"San Mateo Farmers Association","province":"Masbate","municipality":"Uson"},{"association":"TARBA (Tampadong Agrarian Reform Beneficiaries Association)","lat":"13.567574","barangay":"Tampadong","province":"Camarines Sur","lon":"123.046109","municipality":"Pamplona"},{"barangay":"Veneracion","municipality":"Pamplona","association":" VEVUFAI (Veneracion Urban Farmers Assocaition,Inc.)","lat":"13.555508","lon":"123.062039","province":"Camarines Sur"}]},"__N_SSG":true}