{"pageProps":{"villages":[{"association":"Alas Farmers Association","province":"Masbate","lon":"123.343322","barangay":"Alas","municipality":"Mandaon","lat":"12.261882"},{"association":"Cabibiroc-Alayao Farmers Association (CAFA)","province":"Camarines Norte","municipality":"Capalonga","lat":"14.283999","barangay":"Alayao","lon":"122.557276"},{"lat":"13.77147","barangay":"Biong","lon":"124.362139","province":"Catanduanes","municipality":"Gigmoto","association":"Biong Farmers Association"},{"lon":"123.106714","municipality":"Pamplona","association":"Cagbunga Riverside Farmers Organization","province":"Camarines Sur","lat":"13.63714","barangay":"Cagbunga"},{"association":"Dinapa Farmers Association","lon":"123.786951","municipality":"Castilla","province":"Sorsogon","barangay":"Dinapa","lat":"12.908257"},{"barangay":"Joroan","municipality":"Tiwi","association":"Joroan Farmers and Fisherfollks Association","province":"Albay","lon":"123.620308","lat":"13.489628"},{"barangay":"Labnig","lon":"122.820835","province":"Camarines Norte","association":"Paracale Corn and Cassava Farmers Association","municipality":"Paracale","lat":"14.269422"},{"municipality":"Pio Duran","association":"AMIA (Asenso Marigondon Irrigators Association)","barangay":"Marigondon","lon":"123.431072","province":"Albay","lat":"13.054393"},{"association":"Peñafrancia Farmers and Fisherfolks Association","lon":"124.319818","barangay":"Peñafrancia","province":"Catanduanes","municipality":"Viga","lat":"13.885986"},{"lon":"123.801844","barangay":"Quezon","province":"Masbate","municipality":"Uson","lat":"12.193129","association":" Quezon Small Farmers Association MaQueba (Magsaysay,Quezon and Badling"},{"barangay":"San Isidro","association":"San Isidro Farmers Association","lat":"13.028927","lon":"124.172603","municipality":"Prieto Diaz","province":"Sorsogon"},{"municipality":"Uson","lon":"123.817117","barangay":"San Mateo","lat":"12.190327","association":"San Mateo Farmers Association","province":"Masbate"},{"lat":"13.567574","lon":"123.046109","association":"TARBA (Tampadong Agrarian Reform Beneficiaries Association)","barangay":"Tampadong","province":"Camarines Sur","municipality":"Pamplona"},{"province":"Camarines Sur","lon":"123.062039","association":" VEVUFAI (Veneracion Urban Farmers Assocaition,Inc.)","municipality":"Pamplona","barangay":"Veneracion","lat":"13.555508"}]},"__N_SSG":true}