{"pageProps":{"villages":[{"barangay":"Alas","lon":"123.343322","province":"Masbate","association":"Alas Farmers Association","municipality":"Mandaon","lat":"12.261882"},{"barangay":"Alayao","lon":"122.557276","municipality":"Capalonga","province":"Camarines Norte","association":"Cabibiroc-Alayao Farmers Association (CAFA)","lat":"14.283999"},{"association":"Biong Farmers Association","barangay":"Biong","province":"Catanduanes","lon":"124.362139","municipality":"Gigmoto","lat":"13.77147"},{"lat":"13.63714","province":"Camarines Sur","barangay":"Cagbunga","association":"Cagbunga Riverside Farmers Organization","municipality":"Pamplona","lon":"123.106714"},{"barangay":"Dinapa","lon":"123.786951","association":"Dinapa Farmers Association","lat":"12.908257","municipality":"Castilla","province":"Sorsogon"},{"barangay":"Joroan","lon":"123.620308","province":"Albay","municipality":"Tiwi","lat":"13.489628","association":"Joroan Farmers and Fisherfollks Association"},{"lat":"14.269422","lon":"122.820835","province":"Camarines Norte","municipality":"Paracale","barangay":"Labnig","association":"Paracale Corn and Cassava Farmers Association"},{"barangay":"Marigondon","province":"Albay","association":"AMIA (Asenso Marigondon Irrigators Association)","municipality":"Pio Duran","lat":"13.054393","lon":"123.431072"},{"lon":"124.319818","barangay":"Peñafrancia","lat":"13.885986","province":"Catanduanes","association":"Peñafrancia Farmers and Fisherfolks Association","municipality":"Viga"},{"barangay":"Quezon","municipality":"Uson","association":" Quezon Small Farmers Association MaQueba (Magsaysay,Quezon and Badling","lat":"12.193129","province":"Masbate","lon":"123.801844"},{"association":"San Isidro Farmers Association","province":"Sorsogon","lon":"124.172603","municipality":"Prieto Diaz","barangay":"San Isidro","lat":"13.028927"},{"lon":"123.817117","municipality":"Uson","lat":"12.190327","barangay":"San Mateo","association":"San Mateo Farmers Association","province":"Masbate"},{"province":"Camarines Sur","lat":"13.567574","association":"TARBA (Tampadong Agrarian Reform Beneficiaries Association)","municipality":"Pamplona","lon":"123.046109","barangay":"Tampadong"},{"lat":"13.555508","province":"Camarines Sur","barangay":"Veneracion","association":" VEVUFAI (Veneracion Urban Farmers Assocaition,Inc.)","lon":"123.062039","municipality":"Pamplona"}],"media":["https://firebasestorage.googleapis.com/v0/b/amia-cis-dev.appspot.com/o/media%2Fimages%2Fgallery%2Fth_clouds.png?alt=media&token=be6d403d-c2d7-4970-9be8-caa1ec484dd2","https://firebasestorage.googleapis.com/v0/b/amia-cis-dev.appspot.com/o/media%2Fimages%2Fgallery%2Fth_seasonal.png?alt=media&token=884f1234-bfc5-4927-91c7-006a90110a24","https://firebasestorage.googleapis.com/v0/b/amia-cis-dev.appspot.com/o/media%2Fimages%2Fgallery%2Fth_typhoon_03.png?alt=media&token=864f099e-29f8-4a17-b282-0af0c121254a"]},"__N_SSG":true}