{"pageProps":{"villages":[{"barangay":"Alas","lon":"123.343322","association":"Alas Farmers Association","lat":"12.261882","province":"Masbate","municipality":"Mandaon"},{"association":"Cabibiroc-Alayao Farmers Association (CAFA)","barangay":"Alayao","municipality":"Capalonga","lon":"122.557276","province":"Camarines Norte","lat":"14.283999"},{"association":"Biong Farmers Association","barangay":"Biong","province":"Catanduanes","lon":"124.362139","municipality":"Gigmoto","lat":"13.77147"},{"lon":"123.106714","association":"Cagbunga Riverside Farmers Organization","province":"Camarines Sur","municipality":"Pamplona","barangay":"Cagbunga","lat":"13.63714"},{"lat":"12.908257","municipality":"Castilla","association":"Dinapa Farmers Association","barangay":"Dinapa","province":"Sorsogon","lon":"123.786951"},{"province":"Albay","association":"Joroan Farmers and Fisherfollks Association","municipality":"Tiwi","lat":"13.489628","barangay":"Joroan","lon":"123.620308"},{"association":"Paracale Corn and Cassava Farmers Association","municipality":"Paracale","lat":"14.269422","province":"Camarines Norte","lon":"122.820835","barangay":"Labnig"},{"lat":"13.054393","municipality":"Pio Duran","association":"AMIA (Asenso Marigondon Irrigators Association)","lon":"123.431072","barangay":"Marigondon","province":"Albay"},{"province":"Catanduanes","lat":"13.885986","municipality":"Viga","association":"Peñafrancia Farmers and Fisherfolks Association","barangay":"Peñafrancia","lon":"124.319818"},{"lon":"123.801844","barangay":"Quezon","municipality":"Uson","association":" Quezon Small Farmers Association MaQueba (Magsaysay,Quezon and Badling","province":"Masbate","lat":"12.193129"},{"province":"Sorsogon","barangay":"San Isidro","municipality":"Prieto Diaz","lat":"13.028927","lon":"124.172603","association":"San Isidro Farmers Association"},{"barangay":"San Mateo","municipality":"Uson","lon":"123.817117","association":"San Mateo Farmers Association","lat":"12.190327","province":"Masbate"},{"association":"TARBA (Tampadong Agrarian Reform Beneficiaries Association)","province":"Camarines Sur","lon":"123.046109","municipality":"Pamplona","lat":"13.567574","barangay":"Tampadong"},{"lon":"123.062039","lat":"13.555508","province":"Camarines Sur","barangay":"Veneracion","association":" VEVUFAI (Veneracion Urban Farmers Assocaition,Inc.)","municipality":"Pamplona"}],"media":{"description":"Download Regional Seasonal Climate Outlook and Advisory PDF bulletins.","url":"https://firebasestorage.googleapis.com/v0/b/amia-cis-dev.appspot.com/o/media%2Fimages%2Fopengraph%2F1200x600%2Fog_bulletins_seasonal.png?alt=media&token=18cb4216-8ee9-4da8-b49c-f13fcfb025cb","path":"https://amia-cis.github.io/bulletins/seasonal-outlook"}},"__N_SSG":true}