{"pageProps":{"villages":[{"lat":"12.261882","province":"Masbate","lon":"123.343322","municipality":"Mandaon","association":"Alas Farmers Association","barangay":"Alas"},{"lat":"14.283999","association":"Cabibiroc-Alayao Farmers Association (CAFA)","municipality":"Capalonga","barangay":"Alayao","province":"Camarines Norte","lon":"122.557276"},{"association":"Biong Farmers Association","province":"Catanduanes","lon":"124.362139","municipality":"Gigmoto","barangay":"Biong","lat":"13.77147"},{"lat":"13.63714","lon":"123.106714","province":"Camarines Sur","municipality":"Pamplona","association":"Cagbunga Riverside Farmers Organization","barangay":"Cagbunga"},{"province":"Sorsogon","lat":"12.908257","municipality":"Castilla","barangay":"Dinapa","lon":"123.786951","association":"Dinapa Farmers Association"},{"municipality":"Tiwi","lon":"123.620308","association":"Joroan Farmers and Fisherfollks Association","lat":"13.489628","barangay":"Joroan","province":"Albay"},{"barangay":"Labnig","lat":"14.269422","municipality":"Paracale","lon":"122.820835","province":"Camarines Norte","association":"Paracale Corn and Cassava Farmers Association"},{"association":"AMIA (Asenso Marigondon Irrigators Association)","barangay":"Marigondon","municipality":"Pio Duran","province":"Albay","lat":"13.054393","lon":"123.431072"},{"association":"Peñafrancia Farmers and Fisherfolks Association","province":"Catanduanes","lon":"124.319818","municipality":"Viga","barangay":"Peñafrancia","lat":"13.885986"},{"province":"Masbate","lat":"12.193129","lon":"123.801844","association":" Quezon Small Farmers Association MaQueba (Magsaysay,Quezon and Badling","barangay":"Quezon","municipality":"Uson"},{"barangay":"San Isidro","province":"Sorsogon","lat":"13.028927","lon":"124.172603","association":"San Isidro Farmers Association","municipality":"Prieto Diaz"},{"barangay":"San Mateo","lat":"12.190327","association":"San Mateo Farmers Association","municipality":"Uson","lon":"123.817117","province":"Masbate"},{"lon":"123.046109","association":"TARBA (Tampadong Agrarian Reform Beneficiaries Association)","municipality":"Pamplona","province":"Camarines Sur","lat":"13.567574","barangay":"Tampadong"},{"province":"Camarines Sur","lon":"123.062039","lat":"13.555508","association":" VEVUFAI (Veneracion Urban Farmers Assocaition,Inc.)","barangay":"Veneracion","municipality":"Pamplona"}],"media":{"description":"Download Special Weather Forecast PDF bulletins.","url":"https://firebasestorage.googleapis.com/v0/b/amia-cis-dev.appspot.com/o/media%2Fimages%2Fopengraph%2F1200x600%2Fog_bulletins_typhoon.png?alt=media&token=2b5a0bba-0272-463e-aed3-1d0fc975646f","path":"https://amia-cis.github.io/bulletins/special-weather-forecast"}},"__N_SSG":true}