{"pageProps":{"villages":[{"lat":"12.261882","province":"Masbate","lon":"123.343322","association":"Alas Farmers Association","barangay":"Alas","municipality":"Mandaon"},{"lat":"14.283999","lon":"122.557276","association":"Cabibiroc-Alayao Farmers Association (CAFA)","barangay":"Alayao","municipality":"Capalonga","province":"Camarines Norte"},{"lon":"124.362139","municipality":"Gigmoto","province":"Catanduanes","barangay":"Biong","lat":"13.77147","association":"Biong Farmers Association"},{"lon":"123.106714","municipality":"Pamplona","lat":"13.63714","province":"Camarines Sur","barangay":"Cagbunga","association":"Cagbunga Riverside Farmers Organization"},{"association":"Dinapa Farmers Association","barangay":"Dinapa","lon":"123.786951","municipality":"Castilla","province":"Sorsogon","lat":"12.908257"},{"barangay":"Joroan","lon":"123.620308","lat":"13.489628","association":"Joroan Farmers and Fisherfollks Association","province":"Albay","municipality":"Tiwi"},{"province":"Camarines Norte","lon":"122.820835","municipality":"Paracale","lat":"14.269422","barangay":"Labnig","association":"Paracale Corn and Cassava Farmers Association"},{"association":"AMIA (Asenso Marigondon Irrigators Association)","municipality":"Pio Duran","province":"Albay","barangay":"Marigondon","lon":"123.431072","lat":"13.054393"},{"municipality":"Viga","lat":"13.885986","association":"Peñafrancia Farmers and Fisherfolks Association","province":"Catanduanes","barangay":"Peñafrancia","lon":"124.319818"},{"lon":"123.801844","municipality":"Uson","association":" Quezon Small Farmers Association MaQueba (Magsaysay,Quezon and Badling","province":"Masbate","barangay":"Quezon","lat":"12.193129"},{"association":"San Isidro Farmers Association","municipality":"Prieto Diaz","lat":"13.028927","province":"Sorsogon","barangay":"San Isidro","lon":"124.172603"},{"province":"Masbate","barangay":"San Mateo","association":"San Mateo Farmers Association","municipality":"Uson","lon":"123.817117","lat":"12.190327"},{"municipality":"Pamplona","province":"Camarines Sur","barangay":"Tampadong","lon":"123.046109","lat":"13.567574","association":"TARBA (Tampadong Agrarian Reform Beneficiaries Association)"},{"barangay":"Veneracion","association":" VEVUFAI (Veneracion Urban Farmers Assocaition,Inc.)","province":"Camarines Sur","lat":"13.555508","municipality":"Pamplona","lon":"123.062039"}],"media":{"description":"Download Regional Seasonal Climate Outlook and Advisory PDF bulletins.","url":"https://firebasestorage.googleapis.com/v0/b/amia-cis-dev.appspot.com/o/media%2Fimages%2Fopengraph%2F1200x600%2Fog_bulletins_seasonal.png?alt=media&token=18cb4216-8ee9-4da8-b49c-f13fcfb025cb","path":"https://amia-cis.github.io/bulletins/seasonal-outlook"}},"__N_SSG":true}