{"pageProps":{"villages":[{"lat":"12.261882","lon":"123.343322","municipality":"Mandaon","barangay":"Alas","province":"Masbate","association":"Alas Farmers Association"},{"province":"Camarines Norte","association":"Cabibiroc-Alayao Farmers Association (CAFA)","lon":"122.557276","barangay":"Alayao","municipality":"Capalonga","lat":"14.283999"},{"lon":"124.362139","province":"Catanduanes","barangay":"Biong","association":"Biong Farmers Association","lat":"13.77147","municipality":"Gigmoto"},{"lon":"123.106714","lat":"13.63714","municipality":"Pamplona","association":"Cagbunga Riverside Farmers Organization","province":"Camarines Sur","barangay":"Cagbunga"},{"lon":"123.786951","municipality":"Castilla","province":"Sorsogon","association":"Dinapa Farmers Association","barangay":"Dinapa","lat":"12.908257"},{"municipality":"Tiwi","lon":"123.620308","lat":"13.489628","province":"Albay","barangay":"Joroan","association":"Joroan Farmers and Fisherfollks Association"},{"municipality":"Paracale","province":"Camarines Norte","association":"Paracale Corn and Cassava Farmers Association","lat":"14.269422","barangay":"Labnig","lon":"122.820835"},{"province":"Albay","lon":"123.431072","barangay":"Marigondon","municipality":"Pio Duran","lat":"13.054393","association":"AMIA (Asenso Marigondon Irrigators Association)"},{"lon":"124.319818","association":"Peñafrancia Farmers and Fisherfolks Association","barangay":"Peñafrancia","lat":"13.885986","municipality":"Viga","province":"Catanduanes"},{"lat":"12.193129","association":" Quezon Small Farmers Association MaQueba (Magsaysay,Quezon and Badling","lon":"123.801844","municipality":"Uson","province":"Masbate","barangay":"Quezon"},{"barangay":"San Isidro","province":"Sorsogon","municipality":"Prieto Diaz","lat":"13.028927","association":"San Isidro Farmers Association","lon":"124.172603"},{"province":"Masbate","lon":"123.817117","lat":"12.190327","barangay":"San Mateo","municipality":"Uson","association":"San Mateo Farmers Association"},{"lat":"13.567574","municipality":"Pamplona","barangay":"Tampadong","lon":"123.046109","association":"TARBA (Tampadong Agrarian Reform Beneficiaries Association)","province":"Camarines Sur"},{"lon":"123.062039","municipality":"Pamplona","province":"Camarines Sur","barangay":"Veneracion","association":" VEVUFAI (Veneracion Urban Farmers Assocaition,Inc.)","lat":"13.555508"}]},"__N_SSG":true}