{"pageProps":{"villages":[{"association":"Alas Farmers Association","province":"Masbate","barangay":"Alas","lat":"12.261882","municipality":"Mandaon","lon":"123.343322"},{"lat":"14.283999","lon":"122.557276","municipality":"Capalonga","province":"Camarines Norte","association":"Cabibiroc-Alayao Farmers Association (CAFA)","barangay":"Alayao"},{"municipality":"Gigmoto","barangay":"Biong","association":"Biong Farmers Association","lat":"13.77147","lon":"124.362139","province":"Catanduanes"},{"province":"Camarines Sur","lat":"13.63714","municipality":"Pamplona","association":"Cagbunga Riverside Farmers Organization","lon":"123.106714","barangay":"Cagbunga"},{"lon":"123.786951","province":"Sorsogon","municipality":"Castilla","barangay":"Dinapa","association":"Dinapa Farmers Association","lat":"12.908257"},{"province":"Albay","lon":"123.620308","association":"Joroan Farmers and Fisherfollks Association","municipality":"Tiwi","lat":"13.489628","barangay":"Joroan"},{"barangay":"Labnig","province":"Camarines Norte","lon":"122.820835","lat":"14.269422","association":"Paracale Corn and Cassava Farmers Association","municipality":"Paracale"},{"lat":"13.054393","municipality":"Pio Duran","association":"AMIA (Asenso Marigondon Irrigators Association)","barangay":"Marigondon","province":"Albay","lon":"123.431072"},{"lat":"13.885986","municipality":"Viga","province":"Catanduanes","barangay":"Peñafrancia","association":"Peñafrancia Farmers and Fisherfolks Association","lon":"124.319818"},{"lat":"12.193129","barangay":"Quezon","municipality":"Uson","province":"Masbate","association":" Quezon Small Farmers Association MaQueba (Magsaysay,Quezon and Badling","lon":"123.801844"},{"province":"Sorsogon","lon":"124.172603","lat":"13.028927","municipality":"Prieto Diaz","barangay":"San Isidro","association":"San Isidro Farmers Association"},{"association":"San Mateo Farmers Association","municipality":"Uson","lon":"123.817117","barangay":"San Mateo","province":"Masbate","lat":"12.190327"},{"lat":"13.567574","province":"Camarines Sur","barangay":"Tampadong","municipality":"Pamplona","association":"TARBA (Tampadong Agrarian Reform Beneficiaries Association)","lon":"123.046109"},{"lat":"13.555508","municipality":"Pamplona","lon":"123.062039","province":"Camarines Sur","barangay":"Veneracion","association":" VEVUFAI (Veneracion Urban Farmers Assocaition,Inc.)"}]},"__N_SSG":true}