{"pageProps":{"villages":[{"association":"Alas Farmers Association","barangay":"Alas","lon":"123.343322","province":"Masbate","municipality":"Mandaon","lat":"12.261882"},{"province":"Camarines Norte","barangay":"Alayao","lon":"122.557276","lat":"14.283999","association":"Cabibiroc-Alayao Farmers Association (CAFA)","municipality":"Capalonga"},{"barangay":"Biong","lat":"13.77147","lon":"124.362139","association":"Biong Farmers Association","province":"Catanduanes","municipality":"Gigmoto"},{"barangay":"Cagbunga","association":"Cagbunga Riverside Farmers Organization","province":"Camarines Sur","lon":"123.106714","municipality":"Pamplona","lat":"13.63714"},{"municipality":"Castilla","association":"Dinapa Farmers Association","province":"Sorsogon","lon":"123.786951","lat":"12.908257","barangay":"Dinapa"},{"lat":"13.489628","barangay":"Joroan","association":"Joroan Farmers and Fisherfollks Association","lon":"123.620308","municipality":"Tiwi","province":"Albay"},{"association":"Paracale Corn and Cassava Farmers Association","barangay":"Labnig","lon":"122.820835","municipality":"Paracale","province":"Camarines Norte","lat":"14.269422"},{"lon":"123.431072","municipality":"Pio Duran","lat":"13.054393","association":"AMIA (Asenso Marigondon Irrigators Association)","barangay":"Marigondon","province":"Albay"},{"association":"Peñafrancia Farmers and Fisherfolks Association","province":"Catanduanes","municipality":"Viga","lon":"124.319818","lat":"13.885986","barangay":"Peñafrancia"},{"lon":"123.801844","lat":"12.193129","province":"Masbate","association":" Quezon Small Farmers Association MaQueba (Magsaysay,Quezon and Badling","municipality":"Uson","barangay":"Quezon"},{"lon":"124.172603","province":"Sorsogon","municipality":"Prieto Diaz","lat":"13.028927","barangay":"San Isidro","association":"San Isidro Farmers Association"},{"lat":"12.190327","barangay":"San Mateo","lon":"123.817117","municipality":"Uson","association":"San Mateo Farmers Association","province":"Masbate"},{"province":"Camarines Sur","lat":"13.567574","barangay":"Tampadong","lon":"123.046109","municipality":"Pamplona","association":"TARBA (Tampadong Agrarian Reform Beneficiaries Association)"},{"association":" VEVUFAI (Veneracion Urban Farmers Assocaition,Inc.)","municipality":"Pamplona","barangay":"Veneracion","province":"Camarines Sur","lat":"13.555508","lon":"123.062039"}],"media":{"description":"Download Special Weather Forecast PDF bulletins.","url":"https://firebasestorage.googleapis.com/v0/b/amia-cis-dev.appspot.com/o/media%2Fimages%2Fopengraph%2F1200x600%2Fog_bulletins_typhoon.png?alt=media&token=2b5a0bba-0272-463e-aed3-1d0fc975646f","path":"https://amia-cis.github.io/bulletins/special-weather-forecast"}},"__N_SSG":true}