{"pageProps":{"villages":[{"barangay":"Alas","association":"Alas Farmers Association","lon":"123.343322","lat":"12.261882","province":"Masbate","municipality":"Mandaon"},{"lon":"122.557276","association":"Cabibiroc-Alayao Farmers Association (CAFA)","province":"Camarines Norte","municipality":"Capalonga","lat":"14.283999","barangay":"Alayao"},{"association":"Biong Farmers Association","barangay":"Biong","province":"Catanduanes","municipality":"Gigmoto","lon":"124.362139","lat":"13.77147"},{"lon":"123.106714","municipality":"Pamplona","province":"Camarines Sur","association":"Cagbunga Riverside Farmers Organization","lat":"13.63714","barangay":"Cagbunga"},{"province":"Sorsogon","lat":"12.908257","municipality":"Castilla","barangay":"Dinapa","lon":"123.786951","association":"Dinapa Farmers Association"},{"municipality":"Tiwi","barangay":"Joroan","association":"Joroan Farmers and Fisherfollks Association","lat":"13.489628","lon":"123.620308","province":"Albay"},{"association":"Paracale Corn and Cassava Farmers Association","province":"Camarines Norte","lat":"14.269422","municipality":"Paracale","lon":"122.820835","barangay":"Labnig"},{"province":"Albay","lat":"13.054393","barangay":"Marigondon","lon":"123.431072","association":"AMIA (Asenso Marigondon Irrigators Association)","municipality":"Pio Duran"},{"lon":"124.319818","barangay":"Peñafrancia","association":"Peñafrancia Farmers and Fisherfolks Association","province":"Catanduanes","municipality":"Viga","lat":"13.885986"},{"province":"Masbate","lon":"123.801844","municipality":"Uson","association":" Quezon Small Farmers Association MaQueba (Magsaysay,Quezon and Badling","lat":"12.193129","barangay":"Quezon"},{"association":"San Isidro Farmers Association","barangay":"San Isidro","lon":"124.172603","lat":"13.028927","municipality":"Prieto Diaz","province":"Sorsogon"},{"barangay":"San Mateo","association":"San Mateo Farmers Association","municipality":"Uson","lon":"123.817117","province":"Masbate","lat":"12.190327"},{"association":"TARBA (Tampadong Agrarian Reform Beneficiaries Association)","barangay":"Tampadong","lon":"123.046109","province":"Camarines Sur","lat":"13.567574","municipality":"Pamplona"},{"association":" VEVUFAI (Veneracion Urban Farmers Assocaition,Inc.)","barangay":"Veneracion","municipality":"Pamplona","province":"Camarines Sur","lat":"13.555508","lon":"123.062039"}]},"__N_SSG":true}