{"pageProps":{"villages":[{"association":"Alas Farmers Association","municipality":"Mandaon","province":"Masbate","lat":"12.261882","lon":"123.343322","barangay":"Alas"},{"province":"Camarines Norte","lat":"14.283999","association":"Cabibiroc-Alayao Farmers Association (CAFA)","municipality":"Capalonga","barangay":"Alayao","lon":"122.557276"},{"association":"Biong Farmers Association","municipality":"Gigmoto","lat":"13.77147","lon":"124.362139","province":"Catanduanes","barangay":"Biong"},{"lat":"13.63714","municipality":"Pamplona","province":"Camarines Sur","association":"Cagbunga Riverside Farmers Organization","lon":"123.106714","barangay":"Cagbunga"},{"barangay":"Dinapa","association":"Dinapa Farmers Association","lat":"12.908257","province":"Sorsogon","municipality":"Castilla","lon":"123.786951"},{"municipality":"Tiwi","lat":"13.489628","association":"Joroan Farmers and Fisherfollks Association","province":"Albay","barangay":"Joroan","lon":"123.620308"},{"municipality":"Paracale","lon":"122.820835","lat":"14.269422","association":"Paracale Corn and Cassava Farmers Association","province":"Camarines Norte","barangay":"Labnig"},{"province":"Albay","lat":"13.054393","barangay":"Marigondon","municipality":"Pio Duran","lon":"123.431072","association":"AMIA (Asenso Marigondon Irrigators Association)"},{"municipality":"Viga","association":"Peñafrancia Farmers and Fisherfolks Association","lat":"13.885986","lon":"124.319818","barangay":"Peñafrancia","province":"Catanduanes"},{"lat":"12.193129","association":" Quezon Small Farmers Association MaQueba (Magsaysay,Quezon and Badling","municipality":"Uson","lon":"123.801844","barangay":"Quezon","province":"Masbate"},{"association":"San Isidro Farmers Association","municipality":"Prieto Diaz","lat":"13.028927","barangay":"San Isidro","province":"Sorsogon","lon":"124.172603"},{"lat":"12.190327","association":"San Mateo Farmers Association","province":"Masbate","municipality":"Uson","lon":"123.817117","barangay":"San Mateo"},{"barangay":"Tampadong","province":"Camarines Sur","lon":"123.046109","association":"TARBA (Tampadong Agrarian Reform Beneficiaries Association)","lat":"13.567574","municipality":"Pamplona"},{"lat":"13.555508","municipality":"Pamplona","barangay":"Veneracion","lon":"123.062039","association":" VEVUFAI (Veneracion Urban Farmers Assocaition,Inc.)","province":"Camarines Sur"}]},"__N_SSG":true}