{"pageProps":{"villages":[{"barangay":"Alas","association":"Alas Farmers Association","lon":"123.343322","municipality":"Mandaon","lat":"12.261882","province":"Masbate"},{"barangay":"Alayao","municipality":"Capalonga","lon":"122.557276","association":"Cabibiroc-Alayao Farmers Association (CAFA)","lat":"14.283999","province":"Camarines Norte"},{"lon":"124.362139","province":"Catanduanes","municipality":"Gigmoto","barangay":"Biong","association":"Biong Farmers Association","lat":"13.77147"},{"lon":"123.106714","lat":"13.63714","municipality":"Pamplona","barangay":"Cagbunga","association":"Cagbunga Riverside Farmers Organization","province":"Camarines Sur"},{"association":"Dinapa Farmers Association","barangay":"Dinapa","province":"Sorsogon","lat":"12.908257","municipality":"Castilla","lon":"123.786951"},{"barangay":"Joroan","municipality":"Tiwi","association":"Joroan Farmers and Fisherfollks Association","lat":"13.489628","lon":"123.620308","province":"Albay"},{"association":"Paracale Corn and Cassava Farmers Association","municipality":"Paracale","province":"Camarines Norte","lat":"14.269422","lon":"122.820835","barangay":"Labnig"},{"barangay":"Marigondon","lat":"13.054393","lon":"123.431072","municipality":"Pio Duran","association":"AMIA (Asenso Marigondon Irrigators Association)","province":"Albay"},{"municipality":"Viga","association":"Peñafrancia Farmers and Fisherfolks Association","barangay":"Peñafrancia","lon":"124.319818","lat":"13.885986","province":"Catanduanes"},{"province":"Masbate","association":" Quezon Small Farmers Association MaQueba (Magsaysay,Quezon and Badling","lon":"123.801844","lat":"12.193129","municipality":"Uson","barangay":"Quezon"},{"barangay":"San Isidro","lat":"13.028927","lon":"124.172603","municipality":"Prieto Diaz","association":"San Isidro Farmers Association","province":"Sorsogon"},{"association":"San Mateo Farmers Association","province":"Masbate","municipality":"Uson","lat":"12.190327","barangay":"San Mateo","lon":"123.817117"},{"municipality":"Pamplona","barangay":"Tampadong","lat":"13.567574","lon":"123.046109","association":"TARBA (Tampadong Agrarian Reform Beneficiaries Association)","province":"Camarines Sur"},{"barangay":"Veneracion","lon":"123.062039","lat":"13.555508","province":"Camarines Sur","municipality":"Pamplona","association":" VEVUFAI (Veneracion Urban Farmers Assocaition,Inc.)"}]},"__N_SSG":true}