{"pageProps":{"villages":[{"lon":"123.343322","association":"Alas Farmers Association","barangay":"Alas","province":"Masbate","municipality":"Mandaon","lat":"12.261882"},{"association":"Cabibiroc-Alayao Farmers Association (CAFA)","lat":"14.283999","municipality":"Capalonga","barangay":"Alayao","province":"Camarines Norte","lon":"122.557276"},{"barangay":"Biong","association":"Biong Farmers Association","province":"Catanduanes","lat":"13.77147","lon":"124.362139","municipality":"Gigmoto"},{"province":"Camarines Sur","lon":"123.106714","barangay":"Cagbunga","municipality":"Pamplona","lat":"13.63714","association":"Cagbunga Riverside Farmers Organization"},{"lon":"123.786951","municipality":"Castilla","province":"Sorsogon","barangay":"Dinapa","association":"Dinapa Farmers Association","lat":"12.908257"},{"association":"Joroan Farmers and Fisherfollks Association","province":"Albay","lat":"13.489628","barangay":"Joroan","municipality":"Tiwi","lon":"123.620308"},{"lat":"14.269422","barangay":"Labnig","association":"Paracale Corn and Cassava Farmers Association","province":"Camarines Norte","lon":"122.820835","municipality":"Paracale"},{"municipality":"Pio Duran","lat":"13.054393","barangay":"Marigondon","association":"AMIA (Asenso Marigondon Irrigators Association)","lon":"123.431072","province":"Albay"},{"association":"Peñafrancia Farmers and Fisherfolks Association","municipality":"Viga","lat":"13.885986","barangay":"Peñafrancia","province":"Catanduanes","lon":"124.319818"},{"province":"Masbate","municipality":"Uson","barangay":"Quezon","lat":"12.193129","association":" Quezon Small Farmers Association MaQueba (Magsaysay,Quezon and Badling","lon":"123.801844"},{"lat":"13.028927","municipality":"Prieto Diaz","province":"Sorsogon","association":"San Isidro Farmers Association","lon":"124.172603","barangay":"San Isidro"},{"province":"Masbate","municipality":"Uson","barangay":"San Mateo","lon":"123.817117","lat":"12.190327","association":"San Mateo Farmers Association"},{"lat":"13.567574","association":"TARBA (Tampadong Agrarian Reform Beneficiaries Association)","province":"Camarines Sur","barangay":"Tampadong","lon":"123.046109","municipality":"Pamplona"},{"municipality":"Pamplona","lat":"13.555508","association":" VEVUFAI (Veneracion Urban Farmers Assocaition,Inc.)","lon":"123.062039","barangay":"Veneracion","province":"Camarines Sur"}]},"__N_SSG":true}