{"pageProps":{"villages":[{"province":"Masbate","municipality":"Mandaon","barangay":"Alas","lat":"12.261882","lon":"123.343322","association":"Alas Farmers Association"},{"association":"Cabibiroc-Alayao Farmers Association (CAFA)","municipality":"Capalonga","lat":"14.283999","province":"Camarines Norte","lon":"122.557276","barangay":"Alayao"},{"association":"Biong Farmers Association","province":"Catanduanes","lon":"124.362139","municipality":"Gigmoto","lat":"13.77147","barangay":"Biong"},{"association":"Cagbunga Riverside Farmers Organization","municipality":"Pamplona","lon":"123.106714","barangay":"Cagbunga","province":"Camarines Sur","lat":"13.63714"},{"lat":"12.908257","lon":"123.786951","association":"Dinapa Farmers Association","municipality":"Castilla","barangay":"Dinapa","province":"Sorsogon"},{"lat":"13.489628","barangay":"Joroan","municipality":"Tiwi","association":"Joroan Farmers and Fisherfollks Association","province":"Albay","lon":"123.620308"},{"municipality":"Paracale","province":"Camarines Norte","barangay":"Labnig","association":"Paracale Corn and Cassava Farmers Association","lat":"14.269422","lon":"122.820835"},{"barangay":"Marigondon","municipality":"Pio Duran","lon":"123.431072","association":"AMIA (Asenso Marigondon Irrigators Association)","province":"Albay","lat":"13.054393"},{"municipality":"Viga","lon":"124.319818","province":"Catanduanes","association":"Peñafrancia Farmers and Fisherfolks Association","barangay":"Peñafrancia","lat":"13.885986"},{"lat":"12.193129","association":" Quezon Small Farmers Association MaQueba (Magsaysay,Quezon and Badling","barangay":"Quezon","lon":"123.801844","municipality":"Uson","province":"Masbate"},{"municipality":"Prieto Diaz","barangay":"San Isidro","association":"San Isidro Farmers Association","province":"Sorsogon","lat":"13.028927","lon":"124.172603"},{"lat":"12.190327","association":"San Mateo Farmers Association","barangay":"San Mateo","lon":"123.817117","municipality":"Uson","province":"Masbate"},{"association":"TARBA (Tampadong Agrarian Reform Beneficiaries Association)","province":"Camarines Sur","lat":"13.567574","barangay":"Tampadong","lon":"123.046109","municipality":"Pamplona"},{"barangay":"Veneracion","province":"Camarines Sur","lon":"123.062039","association":" VEVUFAI (Veneracion Urban Farmers Assocaition,Inc.)","lat":"13.555508","municipality":"Pamplona"}],"media":["https://firebasestorage.googleapis.com/v0/b/amia-cis-dev.appspot.com/o/media%2Fimages%2Fgallery%2Fth_clouds.png?alt=media&token=be6d403d-c2d7-4970-9be8-caa1ec484dd2","https://firebasestorage.googleapis.com/v0/b/amia-cis-dev.appspot.com/o/media%2Fimages%2Fgallery%2Fth_seasonal.png?alt=media&token=884f1234-bfc5-4927-91c7-006a90110a24","https://firebasestorage.googleapis.com/v0/b/amia-cis-dev.appspot.com/o/media%2Fimages%2Fgallery%2Fth_typhoon_03.png?alt=media&token=864f099e-29f8-4a17-b282-0af0c121254a"]},"__N_SSG":true}