{"pageProps":{"villages":[{"lon":"123.343322","barangay":"Alas","association":"Alas Farmers Association","lat":"12.261882","municipality":"Mandaon","province":"Masbate"},{"province":"Camarines Norte","association":"Cabibiroc-Alayao Farmers Association (CAFA)","lon":"122.557276","barangay":"Alayao","municipality":"Capalonga","lat":"14.283999"},{"municipality":"Gigmoto","barangay":"Biong","lon":"124.362139","association":"Biong Farmers Association","lat":"13.77147","province":"Catanduanes"},{"lat":"13.63714","lon":"123.106714","barangay":"Cagbunga","association":"Cagbunga Riverside Farmers Organization","province":"Camarines Sur","municipality":"Pamplona"},{"province":"Sorsogon","association":"Dinapa Farmers Association","lat":"12.908257","lon":"123.786951","municipality":"Castilla","barangay":"Dinapa"},{"barangay":"Joroan","municipality":"Tiwi","lat":"13.489628","province":"Albay","association":"Joroan Farmers and Fisherfollks Association","lon":"123.620308"},{"association":"Paracale Corn and Cassava Farmers Association","lon":"122.820835","municipality":"Paracale","barangay":"Labnig","province":"Camarines Norte","lat":"14.269422"},{"barangay":"Marigondon","province":"Albay","municipality":"Pio Duran","association":"AMIA (Asenso Marigondon Irrigators Association)","lon":"123.431072","lat":"13.054393"},{"lat":"13.885986","barangay":"Peñafrancia","municipality":"Viga","association":"Peñafrancia Farmers and Fisherfolks Association","province":"Catanduanes","lon":"124.319818"},{"province":"Masbate","association":" Quezon Small Farmers Association MaQueba (Magsaysay,Quezon and Badling","lat":"12.193129","municipality":"Uson","barangay":"Quezon","lon":"123.801844"},{"lat":"13.028927","association":"San Isidro Farmers Association","lon":"124.172603","municipality":"Prieto Diaz","barangay":"San Isidro","province":"Sorsogon"},{"barangay":"San Mateo","lon":"123.817117","association":"San Mateo Farmers Association","province":"Masbate","lat":"12.190327","municipality":"Uson"},{"barangay":"Tampadong","province":"Camarines Sur","lat":"13.567574","municipality":"Pamplona","association":"TARBA (Tampadong Agrarian Reform Beneficiaries Association)","lon":"123.046109"},{"association":" VEVUFAI (Veneracion Urban Farmers Assocaition,Inc.)","municipality":"Pamplona","barangay":"Veneracion","lon":"123.062039","lat":"13.555508","province":"Camarines Sur"}]},"__N_SSG":true}