{"pageProps":{"villages":[{"lon":"123.343322","association":"Alas Farmers Association","lat":"12.261882","municipality":"Mandaon","barangay":"Alas","province":"Masbate"},{"province":"Camarines Norte","association":"Cabibiroc-Alayao Farmers Association (CAFA)","lat":"14.283999","lon":"122.557276","barangay":"Alayao","municipality":"Capalonga"},{"province":"Catanduanes","lon":"124.362139","barangay":"Biong","association":"Biong Farmers Association","lat":"13.77147","municipality":"Gigmoto"},{"province":"Camarines Sur","lon":"123.106714","lat":"13.63714","barangay":"Cagbunga","association":"Cagbunga Riverside Farmers Organization","municipality":"Pamplona"},{"association":"Dinapa Farmers Association","municipality":"Castilla","lat":"12.908257","barangay":"Dinapa","province":"Sorsogon","lon":"123.786951"},{"province":"Albay","association":"Joroan Farmers and Fisherfollks Association","barangay":"Joroan","lat":"13.489628","municipality":"Tiwi","lon":"123.620308"},{"province":"Camarines Norte","lat":"14.269422","barangay":"Labnig","municipality":"Paracale","lon":"122.820835","association":"Paracale Corn and Cassava Farmers Association"},{"municipality":"Pio Duran","association":"AMIA (Asenso Marigondon Irrigators Association)","lat":"13.054393","lon":"123.431072","province":"Albay","barangay":"Marigondon"},{"barangay":"Peñafrancia","municipality":"Viga","province":"Catanduanes","association":"Peñafrancia Farmers and Fisherfolks Association","lon":"124.319818","lat":"13.885986"},{"lon":"123.801844","province":"Masbate","municipality":"Uson","barangay":"Quezon","association":" Quezon Small Farmers Association MaQueba (Magsaysay,Quezon and Badling","lat":"12.193129"},{"association":"San Isidro Farmers Association","lon":"124.172603","barangay":"San Isidro","lat":"13.028927","province":"Sorsogon","municipality":"Prieto Diaz"},{"barangay":"San Mateo","province":"Masbate","municipality":"Uson","lat":"12.190327","lon":"123.817117","association":"San Mateo Farmers Association"},{"barangay":"Tampadong","lat":"13.567574","lon":"123.046109","association":"TARBA (Tampadong Agrarian Reform Beneficiaries Association)","municipality":"Pamplona","province":"Camarines Sur"},{"lat":"13.555508","association":" VEVUFAI (Veneracion Urban Farmers Assocaition,Inc.)","province":"Camarines Sur","barangay":"Veneracion","lon":"123.062039","municipality":"Pamplona"}]},"__N_SSG":true}