{"pageProps":{"villages":[{"municipality":"Mandaon","province":"Masbate","barangay":"Alas","lon":"123.343322","lat":"12.261882","association":"Alas Farmers Association"},{"municipality":"Capalonga","barangay":"Alayao","association":"Cabibiroc-Alayao Farmers Association (CAFA)","province":"Camarines Norte","lon":"122.557276","lat":"14.283999"},{"association":"Biong Farmers Association","municipality":"Gigmoto","lat":"13.77147","lon":"124.362139","barangay":"Biong","province":"Catanduanes"},{"lat":"13.63714","association":"Cagbunga Riverside Farmers Organization","municipality":"Pamplona","lon":"123.106714","barangay":"Cagbunga","province":"Camarines Sur"},{"lat":"12.908257","association":"Dinapa Farmers Association","municipality":"Castilla","lon":"123.786951","province":"Sorsogon","barangay":"Dinapa"},{"association":"Joroan Farmers and Fisherfollks Association","province":"Albay","lon":"123.620308","municipality":"Tiwi","barangay":"Joroan","lat":"13.489628"},{"province":"Camarines Norte","association":"Paracale Corn and Cassava Farmers Association","lat":"14.269422","barangay":"Labnig","municipality":"Paracale","lon":"122.820835"},{"municipality":"Pio Duran","lon":"123.431072","barangay":"Marigondon","province":"Albay","lat":"13.054393","association":"AMIA (Asenso Marigondon Irrigators Association)"},{"barangay":"Peñafrancia","lon":"124.319818","municipality":"Viga","province":"Catanduanes","lat":"13.885986","association":"Peñafrancia Farmers and Fisherfolks Association"},{"barangay":"Quezon","municipality":"Uson","lon":"123.801844","lat":"12.193129","association":" Quezon Small Farmers Association MaQueba (Magsaysay,Quezon and Badling","province":"Masbate"},{"barangay":"San Isidro","lon":"124.172603","association":"San Isidro Farmers Association","lat":"13.028927","municipality":"Prieto Diaz","province":"Sorsogon"},{"association":"San Mateo Farmers Association","lon":"123.817117","municipality":"Uson","lat":"12.190327","province":"Masbate","barangay":"San Mateo"},{"municipality":"Pamplona","lat":"13.567574","barangay":"Tampadong","lon":"123.046109","province":"Camarines Sur","association":"TARBA (Tampadong Agrarian Reform Beneficiaries Association)"},{"barangay":"Veneracion","lat":"13.555508","association":" VEVUFAI (Veneracion Urban Farmers Assocaition,Inc.)","province":"Camarines Sur","municipality":"Pamplona","lon":"123.062039"}]},"__N_SSG":true}