{"pageProps":{"villages":[{"municipality":"Mandaon","lat":"12.261882","barangay":"Alas","lon":"123.343322","association":"Alas Farmers Association","province":"Masbate"},{"province":"Camarines Norte","municipality":"Capalonga","lat":"14.283999","association":"Cabibiroc-Alayao Farmers Association (CAFA)","lon":"122.557276","barangay":"Alayao"},{"association":"Biong Farmers Association","lon":"124.362139","barangay":"Biong","province":"Catanduanes","lat":"13.77147","municipality":"Gigmoto"},{"barangay":"Cagbunga","lat":"13.63714","municipality":"Pamplona","province":"Camarines Sur","lon":"123.106714","association":"Cagbunga Riverside Farmers Organization"},{"association":"Dinapa Farmers Association","lat":"12.908257","province":"Sorsogon","municipality":"Castilla","barangay":"Dinapa","lon":"123.786951"},{"lat":"13.489628","municipality":"Tiwi","lon":"123.620308","province":"Albay","barangay":"Joroan","association":"Joroan Farmers and Fisherfollks Association"},{"lat":"14.269422","lon":"122.820835","province":"Camarines Norte","association":"Paracale Corn and Cassava Farmers Association","municipality":"Paracale","barangay":"Labnig"},{"barangay":"Marigondon","lat":"13.054393","municipality":"Pio Duran","province":"Albay","lon":"123.431072","association":"AMIA (Asenso Marigondon Irrigators Association)"},{"lat":"13.885986","municipality":"Viga","association":"Peñafrancia Farmers and Fisherfolks Association","province":"Catanduanes","lon":"124.319818","barangay":"Peñafrancia"},{"barangay":"Quezon","province":"Masbate","lat":"12.193129","association":" Quezon Small Farmers Association MaQueba (Magsaysay,Quezon and Badling","lon":"123.801844","municipality":"Uson"},{"lon":"124.172603","association":"San Isidro Farmers Association","lat":"13.028927","municipality":"Prieto Diaz","province":"Sorsogon","barangay":"San Isidro"},{"lon":"123.817117","province":"Masbate","lat":"12.190327","barangay":"San Mateo","association":"San Mateo Farmers Association","municipality":"Uson"},{"association":"TARBA (Tampadong Agrarian Reform Beneficiaries Association)","lon":"123.046109","barangay":"Tampadong","municipality":"Pamplona","province":"Camarines Sur","lat":"13.567574"},{"lat":"13.555508","province":"Camarines Sur","barangay":"Veneracion","association":" VEVUFAI (Veneracion Urban Farmers Assocaition,Inc.)","municipality":"Pamplona","lon":"123.062039"}],"media":{"description":"Download Regional Seasonal Climate Outlook and Advisory PDF bulletins.","url":"https://firebasestorage.googleapis.com/v0/b/amia-cis-dev.appspot.com/o/media%2Fimages%2Fopengraph%2F1200x600%2Fog_bulletins_seasonal.png?alt=media&token=18cb4216-8ee9-4da8-b49c-f13fcfb025cb","path":"https://amia-cis.github.io/bulletins/seasonal-outlook"}},"__N_SSG":true}