{"pageProps":{"villages":[{"barangay":"Alas","province":"Masbate","municipality":"Mandaon","association":"Alas Farmers Association","lat":"12.261882","lon":"123.343322"},{"association":"Cabibiroc-Alayao Farmers Association (CAFA)","barangay":"Alayao","lon":"122.557276","municipality":"Capalonga","lat":"14.283999","province":"Camarines Norte"},{"municipality":"Gigmoto","association":"Biong Farmers Association","province":"Catanduanes","lon":"124.362139","lat":"13.77147","barangay":"Biong"},{"municipality":"Pamplona","lon":"123.106714","lat":"13.63714","association":"Cagbunga Riverside Farmers Organization","barangay":"Cagbunga","province":"Camarines Sur"},{"municipality":"Castilla","barangay":"Dinapa","province":"Sorsogon","lat":"12.908257","association":"Dinapa Farmers Association","lon":"123.786951"},{"barangay":"Joroan","municipality":"Tiwi","lat":"13.489628","lon":"123.620308","association":"Joroan Farmers and Fisherfollks Association","province":"Albay"},{"lat":"14.269422","association":"Paracale Corn and Cassava Farmers Association","municipality":"Paracale","lon":"122.820835","province":"Camarines Norte","barangay":"Labnig"},{"association":"AMIA (Asenso Marigondon Irrigators Association)","lon":"123.431072","municipality":"Pio Duran","barangay":"Marigondon","lat":"13.054393","province":"Albay"},{"association":"Peñafrancia Farmers and Fisherfolks Association","municipality":"Viga","lon":"124.319818","lat":"13.885986","barangay":"Peñafrancia","province":"Catanduanes"},{"lat":"12.193129","province":"Masbate","barangay":"Quezon","association":" Quezon Small Farmers Association MaQueba (Magsaysay,Quezon and Badling","municipality":"Uson","lon":"123.801844"},{"barangay":"San Isidro","lat":"13.028927","municipality":"Prieto Diaz","province":"Sorsogon","association":"San Isidro Farmers Association","lon":"124.172603"},{"lon":"123.817117","province":"Masbate","municipality":"Uson","lat":"12.190327","barangay":"San Mateo","association":"San Mateo Farmers Association"},{"municipality":"Pamplona","lon":"123.046109","association":"TARBA (Tampadong Agrarian Reform Beneficiaries Association)","province":"Camarines Sur","barangay":"Tampadong","lat":"13.567574"},{"barangay":"Veneracion","association":" VEVUFAI (Veneracion Urban Farmers Assocaition,Inc.)","lat":"13.555508","municipality":"Pamplona","lon":"123.062039","province":"Camarines Sur"}]},"__N_SSG":true}