{"pageProps":{"villages":[{"province":"Masbate","municipality":"Mandaon","barangay":"Alas","lon":"123.343322","lat":"12.261882","association":"Alas Farmers Association"},{"province":"Camarines Norte","barangay":"Alayao","municipality":"Capalonga","lon":"122.557276","lat":"14.283999","association":"Cabibiroc-Alayao Farmers Association (CAFA)"},{"lon":"124.362139","municipality":"Gigmoto","association":"Biong Farmers Association","barangay":"Biong","province":"Catanduanes","lat":"13.77147"},{"lon":"123.106714","barangay":"Cagbunga","lat":"13.63714","province":"Camarines Sur","municipality":"Pamplona","association":"Cagbunga Riverside Farmers Organization"},{"barangay":"Dinapa","municipality":"Castilla","association":"Dinapa Farmers Association","lat":"12.908257","lon":"123.786951","province":"Sorsogon"},{"province":"Albay","lon":"123.620308","municipality":"Tiwi","lat":"13.489628","association":"Joroan Farmers and Fisherfollks Association","barangay":"Joroan"},{"lon":"122.820835","municipality":"Paracale","province":"Camarines Norte","lat":"14.269422","association":"Paracale Corn and Cassava Farmers Association","barangay":"Labnig"},{"lat":"13.054393","lon":"123.431072","municipality":"Pio Duran","province":"Albay","association":"AMIA (Asenso Marigondon Irrigators Association)","barangay":"Marigondon"},{"municipality":"Viga","lon":"124.319818","lat":"13.885986","barangay":"Peñafrancia","province":"Catanduanes","association":"Peñafrancia Farmers and Fisherfolks Association"},{"barangay":"Quezon","lon":"123.801844","province":"Masbate","lat":"12.193129","association":" Quezon Small Farmers Association MaQueba (Magsaysay,Quezon and Badling","municipality":"Uson"},{"province":"Sorsogon","lon":"124.172603","municipality":"Prieto Diaz","association":"San Isidro Farmers Association","barangay":"San Isidro","lat":"13.028927"},{"lat":"12.190327","municipality":"Uson","lon":"123.817117","association":"San Mateo Farmers Association","barangay":"San Mateo","province":"Masbate"},{"municipality":"Pamplona","lon":"123.046109","province":"Camarines Sur","association":"TARBA (Tampadong Agrarian Reform Beneficiaries Association)","lat":"13.567574","barangay":"Tampadong"},{"lat":"13.555508","municipality":"Pamplona","barangay":"Veneracion","association":" VEVUFAI (Veneracion Urban Farmers Assocaition,Inc.)","lon":"123.062039","province":"Camarines Sur"}],"media":{"description":"Download Regional Seasonal Climate Outlook and Advisory PDF bulletins.","url":"https://firebasestorage.googleapis.com/v0/b/amia-cis-dev.appspot.com/o/media%2Fimages%2Fopengraph%2F1200x600%2Fog_bulletins_seasonal.png?alt=media&token=18cb4216-8ee9-4da8-b49c-f13fcfb025cb","path":"https://amia-cis.github.io/bulletins/seasonal-outlook"}},"__N_SSG":true}