{"pageProps":{"villages":[{"association":"Alas Farmers Association","barangay":"Alas","lon":"123.343322","province":"Masbate","municipality":"Mandaon","lat":"12.261882"},{"barangay":"Alayao","lon":"122.557276","municipality":"Capalonga","association":"Cabibiroc-Alayao Farmers Association (CAFA)","lat":"14.283999","province":"Camarines Norte"},{"barangay":"Biong","lon":"124.362139","lat":"13.77147","association":"Biong Farmers Association","municipality":"Gigmoto","province":"Catanduanes"},{"association":"Cagbunga Riverside Farmers Organization","lat":"13.63714","barangay":"Cagbunga","lon":"123.106714","municipality":"Pamplona","province":"Camarines Sur"},{"province":"Sorsogon","municipality":"Castilla","lon":"123.786951","association":"Dinapa Farmers Association","lat":"12.908257","barangay":"Dinapa"},{"association":"Joroan Farmers and Fisherfollks Association","lon":"123.620308","lat":"13.489628","barangay":"Joroan","province":"Albay","municipality":"Tiwi"},{"province":"Camarines Norte","lat":"14.269422","municipality":"Paracale","barangay":"Labnig","association":"Paracale Corn and Cassava Farmers Association","lon":"122.820835"},{"municipality":"Pio Duran","lat":"13.054393","barangay":"Marigondon","association":"AMIA (Asenso Marigondon Irrigators Association)","province":"Albay","lon":"123.431072"},{"lon":"124.319818","barangay":"Peñafrancia","municipality":"Viga","association":"Peñafrancia Farmers and Fisherfolks Association","province":"Catanduanes","lat":"13.885986"},{"association":" Quezon Small Farmers Association MaQueba (Magsaysay,Quezon and Badling","province":"Masbate","lon":"123.801844","municipality":"Uson","lat":"12.193129","barangay":"Quezon"},{"municipality":"Prieto Diaz","lat":"13.028927","lon":"124.172603","province":"Sorsogon","barangay":"San Isidro","association":"San Isidro Farmers Association"},{"lat":"12.190327","province":"Masbate","barangay":"San Mateo","lon":"123.817117","association":"San Mateo Farmers Association","municipality":"Uson"},{"lon":"123.046109","lat":"13.567574","municipality":"Pamplona","province":"Camarines Sur","association":"TARBA (Tampadong Agrarian Reform Beneficiaries Association)","barangay":"Tampadong"},{"municipality":"Pamplona","lat":"13.555508","lon":"123.062039","province":"Camarines Sur","association":" VEVUFAI (Veneracion Urban Farmers Assocaition,Inc.)","barangay":"Veneracion"}],"media":["https://firebasestorage.googleapis.com/v0/b/amia-cis-dev.appspot.com/o/media%2Fimages%2Fgallery%2Fth_clouds.png?alt=media&token=be6d403d-c2d7-4970-9be8-caa1ec484dd2","https://firebasestorage.googleapis.com/v0/b/amia-cis-dev.appspot.com/o/media%2Fimages%2Fgallery%2Fth_seasonal.png?alt=media&token=884f1234-bfc5-4927-91c7-006a90110a24","https://firebasestorage.googleapis.com/v0/b/amia-cis-dev.appspot.com/o/media%2Fimages%2Fgallery%2Fth_typhoon_03.png?alt=media&token=864f099e-29f8-4a17-b282-0af0c121254a"]},"__N_SSG":true}