{"pageProps":{"villages":[{"province":"Masbate","barangay":"Alas","association":"Alas Farmers Association","lon":"123.343322","municipality":"Mandaon","lat":"12.261882"},{"barangay":"Alayao","province":"Camarines Norte","association":"Cabibiroc-Alayao Farmers Association (CAFA)","municipality":"Capalonga","lat":"14.283999","lon":"122.557276"},{"municipality":"Gigmoto","barangay":"Biong","province":"Catanduanes","lat":"13.77147","lon":"124.362139","association":"Biong Farmers Association"},{"province":"Camarines Sur","lon":"123.106714","lat":"13.63714","barangay":"Cagbunga","municipality":"Pamplona","association":"Cagbunga Riverside Farmers Organization"},{"province":"Sorsogon","municipality":"Castilla","barangay":"Dinapa","lon":"123.786951","association":"Dinapa Farmers Association","lat":"12.908257"},{"province":"Albay","association":"Joroan Farmers and Fisherfollks Association","barangay":"Joroan","lon":"123.620308","municipality":"Tiwi","lat":"13.489628"},{"lon":"122.820835","province":"Camarines Norte","lat":"14.269422","municipality":"Paracale","barangay":"Labnig","association":"Paracale Corn and Cassava Farmers Association"},{"lon":"123.431072","province":"Albay","barangay":"Marigondon","lat":"13.054393","municipality":"Pio Duran","association":"AMIA (Asenso Marigondon Irrigators Association)"},{"lon":"124.319818","province":"Catanduanes","association":"Peñafrancia Farmers and Fisherfolks Association","municipality":"Viga","barangay":"Peñafrancia","lat":"13.885986"},{"association":" Quezon Small Farmers Association MaQueba (Magsaysay,Quezon and Badling","barangay":"Quezon","province":"Masbate","lon":"123.801844","municipality":"Uson","lat":"12.193129"},{"province":"Sorsogon","association":"San Isidro Farmers Association","barangay":"San Isidro","municipality":"Prieto Diaz","lat":"13.028927","lon":"124.172603"},{"municipality":"Uson","province":"Masbate","lon":"123.817117","association":"San Mateo Farmers Association","lat":"12.190327","barangay":"San Mateo"},{"province":"Camarines Sur","association":"TARBA (Tampadong Agrarian Reform Beneficiaries Association)","lon":"123.046109","barangay":"Tampadong","municipality":"Pamplona","lat":"13.567574"},{"lon":"123.062039","municipality":"Pamplona","province":"Camarines Sur","association":" VEVUFAI (Veneracion Urban Farmers Assocaition,Inc.)","lat":"13.555508","barangay":"Veneracion"}],"media":["https://firebasestorage.googleapis.com/v0/b/amia-cis-dev.appspot.com/o/media%2Fimages%2Fgallery%2Fth_clouds.png?alt=media&token=be6d403d-c2d7-4970-9be8-caa1ec484dd2","https://firebasestorage.googleapis.com/v0/b/amia-cis-dev.appspot.com/o/media%2Fimages%2Fgallery%2Fth_seasonal.png?alt=media&token=884f1234-bfc5-4927-91c7-006a90110a24","https://firebasestorage.googleapis.com/v0/b/amia-cis-dev.appspot.com/o/media%2Fimages%2Fgallery%2Fth_typhoon_03.png?alt=media&token=864f099e-29f8-4a17-b282-0af0c121254a"],"info":{"description":"View or download bulletin PDF recommendations for the Seasonal and 10-Day Weather Outlook","url":"https://firebasestorage.googleapis.com/v0/b/amia-cis-dev.appspot.com/o/media%2Fimages%2Fopengraph%2F1200x600%2Fog_bulletins_1200.png?alt=media&token=54e900b0-cb13-4f0f-9418-b8052580ffeb","path":"https://amia-cis.github.io/bulletins"}},"__N_SSG":true}