{"pageProps":{"villages":[{"lat":"12.261882","municipality":"Mandaon","barangay":"Alas","province":"Masbate","lon":"123.343322","association":"Alas Farmers Association"},{"lon":"122.557276","province":"Camarines Norte","lat":"14.283999","barangay":"Alayao","municipality":"Capalonga","association":"Cabibiroc-Alayao Farmers Association (CAFA)"},{"province":"Catanduanes","lat":"13.77147","municipality":"Gigmoto","association":"Biong Farmers Association","barangay":"Biong","lon":"124.362139"},{"province":"Camarines Sur","association":"Cagbunga Riverside Farmers Organization","lon":"123.106714","barangay":"Cagbunga","municipality":"Pamplona","lat":"13.63714"},{"lon":"123.786951","municipality":"Castilla","barangay":"Dinapa","province":"Sorsogon","lat":"12.908257","association":"Dinapa Farmers Association"},{"lat":"13.489628","lon":"123.620308","barangay":"Joroan","association":"Joroan Farmers and Fisherfollks Association","municipality":"Tiwi","province":"Albay"},{"lon":"122.820835","barangay":"Labnig","municipality":"Paracale","lat":"14.269422","association":"Paracale Corn and Cassava Farmers Association","province":"Camarines Norte"},{"province":"Albay","municipality":"Pio Duran","lat":"13.054393","barangay":"Marigondon","lon":"123.431072","association":"AMIA (Asenso Marigondon Irrigators Association)"},{"association":"Peñafrancia Farmers and Fisherfolks Association","province":"Catanduanes","barangay":"Peñafrancia","lon":"124.319818","lat":"13.885986","municipality":"Viga"},{"association":" Quezon Small Farmers Association MaQueba (Magsaysay,Quezon and Badling","lon":"123.801844","lat":"12.193129","barangay":"Quezon","municipality":"Uson","province":"Masbate"},{"barangay":"San Isidro","association":"San Isidro Farmers Association","municipality":"Prieto Diaz","province":"Sorsogon","lat":"13.028927","lon":"124.172603"},{"municipality":"Uson","province":"Masbate","barangay":"San Mateo","lat":"12.190327","association":"San Mateo Farmers Association","lon":"123.817117"},{"municipality":"Pamplona","province":"Camarines Sur","lat":"13.567574","association":"TARBA (Tampadong Agrarian Reform Beneficiaries Association)","lon":"123.046109","barangay":"Tampadong"},{"barangay":"Veneracion","lon":"123.062039","province":"Camarines Sur","municipality":"Pamplona","lat":"13.555508","association":" VEVUFAI (Veneracion Urban Farmers Assocaition,Inc.)"}]},"__N_SSG":true}