{"pageProps":{"villages":[{"association":"Alas Farmers Association","lon":"123.343322","lat":"12.261882","municipality":"Mandaon","barangay":"Alas","province":"Masbate"},{"lat":"14.283999","province":"Camarines Norte","lon":"122.557276","municipality":"Capalonga","association":"Cabibiroc-Alayao Farmers Association (CAFA)","barangay":"Alayao"},{"lon":"124.362139","barangay":"Biong","lat":"13.77147","association":"Biong Farmers Association","municipality":"Gigmoto","province":"Catanduanes"},{"municipality":"Pamplona","lon":"123.106714","association":"Cagbunga Riverside Farmers Organization","barangay":"Cagbunga","province":"Camarines Sur","lat":"13.63714"},{"province":"Sorsogon","lon":"123.786951","lat":"12.908257","association":"Dinapa Farmers Association","municipality":"Castilla","barangay":"Dinapa"},{"barangay":"Joroan","lat":"13.489628","municipality":"Tiwi","association":"Joroan Farmers and Fisherfollks Association","province":"Albay","lon":"123.620308"},{"lon":"122.820835","barangay":"Labnig","province":"Camarines Norte","municipality":"Paracale","association":"Paracale Corn and Cassava Farmers Association","lat":"14.269422"},{"lat":"13.054393","barangay":"Marigondon","municipality":"Pio Duran","lon":"123.431072","association":"AMIA (Asenso Marigondon Irrigators Association)","province":"Albay"},{"lat":"13.885986","barangay":"Peñafrancia","municipality":"Viga","association":"Peñafrancia Farmers and Fisherfolks Association","province":"Catanduanes","lon":"124.319818"},{"association":" Quezon Small Farmers Association MaQueba (Magsaysay,Quezon and Badling","lon":"123.801844","lat":"12.193129","municipality":"Uson","province":"Masbate","barangay":"Quezon"},{"lat":"13.028927","municipality":"Prieto Diaz","association":"San Isidro Farmers Association","lon":"124.172603","province":"Sorsogon","barangay":"San Isidro"},{"lon":"123.817117","lat":"12.190327","province":"Masbate","municipality":"Uson","association":"San Mateo Farmers Association","barangay":"San Mateo"},{"lon":"123.046109","association":"TARBA (Tampadong Agrarian Reform Beneficiaries Association)","province":"Camarines Sur","barangay":"Tampadong","municipality":"Pamplona","lat":"13.567574"},{"province":"Camarines Sur","municipality":"Pamplona","lon":"123.062039","barangay":"Veneracion","lat":"13.555508","association":" VEVUFAI (Veneracion Urban Farmers Assocaition,Inc.)"}]},"__N_SSG":true}