{"pageProps":{"villages":[{"association":"Alas Farmers Association","province":"Masbate","lat":"12.261882","lon":"123.343322","municipality":"Mandaon","barangay":"Alas"},{"lat":"14.283999","barangay":"Alayao","lon":"122.557276","municipality":"Capalonga","association":"Cabibiroc-Alayao Farmers Association (CAFA)","province":"Camarines Norte"},{"province":"Catanduanes","municipality":"Gigmoto","lon":"124.362139","association":"Biong Farmers Association","lat":"13.77147","barangay":"Biong"},{"province":"Camarines Sur","lat":"13.63714","barangay":"Cagbunga","lon":"123.106714","municipality":"Pamplona","association":"Cagbunga Riverside Farmers Organization"},{"municipality":"Castilla","association":"Dinapa Farmers Association","lon":"123.786951","barangay":"Dinapa","lat":"12.908257","province":"Sorsogon"},{"province":"Albay","lon":"123.620308","municipality":"Tiwi","barangay":"Joroan","lat":"13.489628","association":"Joroan Farmers and Fisherfollks Association"},{"barangay":"Labnig","lat":"14.269422","lon":"122.820835","association":"Paracale Corn and Cassava Farmers Association","municipality":"Paracale","province":"Camarines Norte"},{"lon":"123.431072","barangay":"Marigondon","lat":"13.054393","association":"AMIA (Asenso Marigondon Irrigators Association)","province":"Albay","municipality":"Pio Duran"},{"lat":"13.885986","province":"Catanduanes","lon":"124.319818","barangay":"Peñafrancia","association":"Peñafrancia Farmers and Fisherfolks Association","municipality":"Viga"},{"lon":"123.801844","municipality":"Uson","association":" Quezon Small Farmers Association MaQueba (Magsaysay,Quezon and Badling","province":"Masbate","lat":"12.193129","barangay":"Quezon"},{"municipality":"Prieto Diaz","association":"San Isidro Farmers Association","lon":"124.172603","lat":"13.028927","barangay":"San Isidro","province":"Sorsogon"},{"lat":"12.190327","barangay":"San Mateo","province":"Masbate","lon":"123.817117","municipality":"Uson","association":"San Mateo Farmers Association"},{"barangay":"Tampadong","province":"Camarines Sur","lon":"123.046109","lat":"13.567574","municipality":"Pamplona","association":"TARBA (Tampadong Agrarian Reform Beneficiaries Association)"},{"province":"Camarines Sur","association":" VEVUFAI (Veneracion Urban Farmers Assocaition,Inc.)","lon":"123.062039","lat":"13.555508","barangay":"Veneracion","municipality":"Pamplona"}],"media":["https://firebasestorage.googleapis.com/v0/b/amia-cis-dev.appspot.com/o/media%2Fimages%2Fgallery%2Fth_clouds.png?alt=media&token=be6d403d-c2d7-4970-9be8-caa1ec484dd2","https://firebasestorage.googleapis.com/v0/b/amia-cis-dev.appspot.com/o/media%2Fimages%2Fgallery%2Fth_seasonal.png?alt=media&token=884f1234-bfc5-4927-91c7-006a90110a24","https://firebasestorage.googleapis.com/v0/b/amia-cis-dev.appspot.com/o/media%2Fimages%2Fgallery%2Fth_typhoon_03.png?alt=media&token=864f099e-29f8-4a17-b282-0af0c121254a"]},"__N_SSG":true}