{"pageProps":{"villages":[{"barangay":"Alas","municipality":"Mandaon","province":"Masbate","association":"Alas Farmers Association","lon":"123.343322","lat":"12.261882"},{"lon":"122.557276","association":"Cabibiroc-Alayao Farmers Association (CAFA)","municipality":"Capalonga","barangay":"Alayao","lat":"14.283999","province":"Camarines Norte"},{"municipality":"Gigmoto","barangay":"Biong","province":"Catanduanes","lon":"124.362139","association":"Biong Farmers Association","lat":"13.77147"},{"association":"Cagbunga Riverside Farmers Organization","province":"Camarines Sur","municipality":"Pamplona","lat":"13.63714","barangay":"Cagbunga","lon":"123.106714"},{"association":"Dinapa Farmers Association","municipality":"Castilla","province":"Sorsogon","lon":"123.786951","lat":"12.908257","barangay":"Dinapa"},{"province":"Albay","municipality":"Tiwi","barangay":"Joroan","association":"Joroan Farmers and Fisherfollks Association","lon":"123.620308","lat":"13.489628"},{"municipality":"Paracale","barangay":"Labnig","association":"Paracale Corn and Cassava Farmers Association","lon":"122.820835","lat":"14.269422","province":"Camarines Norte"},{"province":"Albay","lat":"13.054393","association":"AMIA (Asenso Marigondon Irrigators Association)","barangay":"Marigondon","municipality":"Pio Duran","lon":"123.431072"},{"province":"Catanduanes","lon":"124.319818","municipality":"Viga","lat":"13.885986","barangay":"Peñafrancia","association":"Peñafrancia Farmers and Fisherfolks Association"},{"lat":"12.193129","association":" Quezon Small Farmers Association MaQueba (Magsaysay,Quezon and Badling","municipality":"Uson","lon":"123.801844","barangay":"Quezon","province":"Masbate"},{"association":"San Isidro Farmers Association","lat":"13.028927","province":"Sorsogon","barangay":"San Isidro","municipality":"Prieto Diaz","lon":"124.172603"},{"association":"San Mateo Farmers Association","province":"Masbate","lat":"12.190327","lon":"123.817117","municipality":"Uson","barangay":"San Mateo"},{"province":"Camarines Sur","barangay":"Tampadong","association":"TARBA (Tampadong Agrarian Reform Beneficiaries Association)","lat":"13.567574","municipality":"Pamplona","lon":"123.046109"},{"association":" VEVUFAI (Veneracion Urban Farmers Assocaition,Inc.)","lat":"13.555508","lon":"123.062039","province":"Camarines Sur","barangay":"Veneracion","municipality":"Pamplona"}]},"__N_SSG":true}