{"pageProps":{"villages":[{"association":"Alas Farmers Association","lon":"123.343322","province":"Masbate","lat":"12.261882","municipality":"Mandaon","barangay":"Alas"},{"association":"Cabibiroc-Alayao Farmers Association (CAFA)","barangay":"Alayao","province":"Camarines Norte","lon":"122.557276","municipality":"Capalonga","lat":"14.283999"},{"municipality":"Gigmoto","barangay":"Biong","lat":"13.77147","association":"Biong Farmers Association","province":"Catanduanes","lon":"124.362139"},{"lon":"123.106714","municipality":"Pamplona","association":"Cagbunga Riverside Farmers Organization","province":"Camarines Sur","lat":"13.63714","barangay":"Cagbunga"},{"lat":"12.908257","barangay":"Dinapa","lon":"123.786951","municipality":"Castilla","province":"Sorsogon","association":"Dinapa Farmers Association"},{"barangay":"Joroan","lat":"13.489628","lon":"123.620308","province":"Albay","association":"Joroan Farmers and Fisherfollks Association","municipality":"Tiwi"},{"municipality":"Paracale","lat":"14.269422","lon":"122.820835","province":"Camarines Norte","barangay":"Labnig","association":"Paracale Corn and Cassava Farmers Association"},{"association":"AMIA (Asenso Marigondon Irrigators Association)","lon":"123.431072","lat":"13.054393","province":"Albay","barangay":"Marigondon","municipality":"Pio Duran"},{"province":"Catanduanes","association":"Peñafrancia Farmers and Fisherfolks Association","lat":"13.885986","municipality":"Viga","barangay":"Peñafrancia","lon":"124.319818"},{"lon":"123.801844","province":"Masbate","barangay":"Quezon","lat":"12.193129","association":" Quezon Small Farmers Association MaQueba (Magsaysay,Quezon and Badling","municipality":"Uson"},{"lat":"13.028927","association":"San Isidro Farmers Association","barangay":"San Isidro","province":"Sorsogon","municipality":"Prieto Diaz","lon":"124.172603"},{"lat":"12.190327","barangay":"San Mateo","municipality":"Uson","lon":"123.817117","association":"San Mateo Farmers Association","province":"Masbate"},{"barangay":"Tampadong","lat":"13.567574","lon":"123.046109","province":"Camarines Sur","association":"TARBA (Tampadong Agrarian Reform Beneficiaries Association)","municipality":"Pamplona"},{"lat":"13.555508","association":" VEVUFAI (Veneracion Urban Farmers Assocaition,Inc.)","barangay":"Veneracion","lon":"123.062039","province":"Camarines Sur","municipality":"Pamplona"}],"media":{"description":"Agro-Climatic Advisory Portal-Bicol (ACAP-BICOL) serves as a centralized hub for the development of Climate Information Services (CIS) in the Bicol Region. It contains relevant weather and climate information which can be used in developing tailored advisories and crop recommendations.","url":"https://firebasestorage.googleapis.com/v0/b/amia-cis-dev.appspot.com/o/media%2Fimages%2Fopengraph%2F1200x600%2Fog_home_1200.png?alt=media&token=51f9241c-45da-456e-9906-677c2f8fe93a","path":"https://amia-cis.github.io"}},"__N_SSG":true}