{"pageProps":{"villages":[{"association":"Alas Farmers Association","barangay":"Alas","municipality":"Mandaon","lon":"123.343322","lat":"12.261882","province":"Masbate"},{"association":"Cabibiroc-Alayao Farmers Association (CAFA)","barangay":"Alayao","lon":"122.557276","province":"Camarines Norte","municipality":"Capalonga","lat":"14.283999"},{"province":"Catanduanes","lon":"124.362139","barangay":"Biong","municipality":"Gigmoto","association":"Biong Farmers Association","lat":"13.77147"},{"association":"Cagbunga Riverside Farmers Organization","province":"Camarines Sur","municipality":"Pamplona","lat":"13.63714","barangay":"Cagbunga","lon":"123.106714"},{"barangay":"Dinapa","association":"Dinapa Farmers Association","lat":"12.908257","province":"Sorsogon","municipality":"Castilla","lon":"123.786951"},{"municipality":"Tiwi","barangay":"Joroan","lat":"13.489628","lon":"123.620308","province":"Albay","association":"Joroan Farmers and Fisherfollks Association"},{"association":"Paracale Corn and Cassava Farmers Association","province":"Camarines Norte","lon":"122.820835","municipality":"Paracale","lat":"14.269422","barangay":"Labnig"},{"association":"AMIA (Asenso Marigondon Irrigators Association)","municipality":"Pio Duran","lon":"123.431072","province":"Albay","barangay":"Marigondon","lat":"13.054393"},{"lon":"124.319818","association":"Peñafrancia Farmers and Fisherfolks Association","municipality":"Viga","lat":"13.885986","province":"Catanduanes","barangay":"Peñafrancia"},{"lon":"123.801844","association":" Quezon Small Farmers Association MaQueba (Magsaysay,Quezon and Badling","lat":"12.193129","barangay":"Quezon","province":"Masbate","municipality":"Uson"},{"association":"San Isidro Farmers Association","province":"Sorsogon","barangay":"San Isidro","lat":"13.028927","lon":"124.172603","municipality":"Prieto Diaz"},{"province":"Masbate","association":"San Mateo Farmers Association","lon":"123.817117","lat":"12.190327","municipality":"Uson","barangay":"San Mateo"},{"province":"Camarines Sur","association":"TARBA (Tampadong Agrarian Reform Beneficiaries Association)","municipality":"Pamplona","lon":"123.046109","lat":"13.567574","barangay":"Tampadong"},{"lon":"123.062039","municipality":"Pamplona","lat":"13.555508","barangay":"Veneracion","association":" VEVUFAI (Veneracion Urban Farmers Assocaition,Inc.)","province":"Camarines Sur"}]},"__N_SSG":true}