{"pageProps":{"villages":[{"lon":"123.343322","barangay":"Alas","province":"Masbate","association":"Alas Farmers Association","lat":"12.261882","municipality":"Mandaon"},{"lat":"14.283999","lon":"122.557276","association":"Cabibiroc-Alayao Farmers Association (CAFA)","province":"Camarines Norte","barangay":"Alayao","municipality":"Capalonga"},{"province":"Catanduanes","lon":"124.362139","municipality":"Gigmoto","lat":"13.77147","association":"Biong Farmers Association","barangay":"Biong"},{"lon":"123.106714","province":"Camarines Sur","lat":"13.63714","barangay":"Cagbunga","municipality":"Pamplona","association":"Cagbunga Riverside Farmers Organization"},{"lat":"12.908257","association":"Dinapa Farmers Association","lon":"123.786951","municipality":"Castilla","province":"Sorsogon","barangay":"Dinapa"},{"province":"Albay","association":"Joroan Farmers and Fisherfollks Association","municipality":"Tiwi","barangay":"Joroan","lat":"13.489628","lon":"123.620308"},{"barangay":"Labnig","association":"Paracale Corn and Cassava Farmers Association","lon":"122.820835","municipality":"Paracale","province":"Camarines Norte","lat":"14.269422"},{"province":"Albay","barangay":"Marigondon","lon":"123.431072","association":"AMIA (Asenso Marigondon Irrigators Association)","lat":"13.054393","municipality":"Pio Duran"},{"lat":"13.885986","province":"Catanduanes","association":"Peñafrancia Farmers and Fisherfolks Association","barangay":"Peñafrancia","lon":"124.319818","municipality":"Viga"},{"barangay":"Quezon","lon":"123.801844","lat":"12.193129","province":"Masbate","municipality":"Uson","association":" Quezon Small Farmers Association MaQueba (Magsaysay,Quezon and Badling"},{"barangay":"San Isidro","lat":"13.028927","province":"Sorsogon","association":"San Isidro Farmers Association","lon":"124.172603","municipality":"Prieto Diaz"},{"association":"San Mateo Farmers Association","barangay":"San Mateo","lon":"123.817117","province":"Masbate","lat":"12.190327","municipality":"Uson"},{"association":"TARBA (Tampadong Agrarian Reform Beneficiaries Association)","lon":"123.046109","lat":"13.567574","barangay":"Tampadong","municipality":"Pamplona","province":"Camarines Sur"},{"association":" VEVUFAI (Veneracion Urban Farmers Assocaition,Inc.)","barangay":"Veneracion","lon":"123.062039","lat":"13.555508","province":"Camarines Sur","municipality":"Pamplona"}]},"__N_SSG":true}