{"pageProps":{"villages":[{"association":"Alas Farmers Association","province":"Masbate","municipality":"Mandaon","lon":"123.343322","barangay":"Alas","lat":"12.261882"},{"municipality":"Capalonga","lon":"122.557276","barangay":"Alayao","association":"Cabibiroc-Alayao Farmers Association (CAFA)","province":"Camarines Norte","lat":"14.283999"},{"lon":"124.362139","municipality":"Gigmoto","province":"Catanduanes","association":"Biong Farmers Association","barangay":"Biong","lat":"13.77147"},{"barangay":"Cagbunga","lat":"13.63714","association":"Cagbunga Riverside Farmers Organization","lon":"123.106714","municipality":"Pamplona","province":"Camarines Sur"},{"province":"Sorsogon","lat":"12.908257","association":"Dinapa Farmers Association","municipality":"Castilla","lon":"123.786951","barangay":"Dinapa"},{"municipality":"Tiwi","association":"Joroan Farmers and Fisherfollks Association","province":"Albay","lat":"13.489628","barangay":"Joroan","lon":"123.620308"},{"barangay":"Labnig","association":"Paracale Corn and Cassava Farmers Association","lat":"14.269422","municipality":"Paracale","lon":"122.820835","province":"Camarines Norte"},{"lon":"123.431072","municipality":"Pio Duran","barangay":"Marigondon","lat":"13.054393","association":"AMIA (Asenso Marigondon Irrigators Association)","province":"Albay"},{"lon":"124.319818","lat":"13.885986","province":"Catanduanes","barangay":"Peñafrancia","municipality":"Viga","association":"Peñafrancia Farmers and Fisherfolks Association"},{"province":"Masbate","lon":"123.801844","barangay":"Quezon","lat":"12.193129","association":" Quezon Small Farmers Association MaQueba (Magsaysay,Quezon and Badling","municipality":"Uson"},{"barangay":"San Isidro","municipality":"Prieto Diaz","lon":"124.172603","association":"San Isidro Farmers Association","lat":"13.028927","province":"Sorsogon"},{"barangay":"San Mateo","province":"Masbate","association":"San Mateo Farmers Association","lat":"12.190327","lon":"123.817117","municipality":"Uson"},{"association":"TARBA (Tampadong Agrarian Reform Beneficiaries Association)","lon":"123.046109","barangay":"Tampadong","province":"Camarines Sur","lat":"13.567574","municipality":"Pamplona"},{"lon":"123.062039","association":" VEVUFAI (Veneracion Urban Farmers Assocaition,Inc.)","lat":"13.555508","province":"Camarines Sur","barangay":"Veneracion","municipality":"Pamplona"}]},"__N_SSG":true}