{"pageProps":{"villages":[{"association":"Alas Farmers Association","lon":"123.343322","barangay":"Alas","province":"Masbate","municipality":"Mandaon","lat":"12.261882"},{"municipality":"Capalonga","barangay":"Alayao","lat":"14.283999","association":"Cabibiroc-Alayao Farmers Association (CAFA)","lon":"122.557276","province":"Camarines Norte"},{"association":"Biong Farmers Association","province":"Catanduanes","municipality":"Gigmoto","lon":"124.362139","lat":"13.77147","barangay":"Biong"},{"province":"Camarines Sur","barangay":"Cagbunga","municipality":"Pamplona","association":"Cagbunga Riverside Farmers Organization","lat":"13.63714","lon":"123.106714"},{"municipality":"Castilla","province":"Sorsogon","barangay":"Dinapa","lon":"123.786951","lat":"12.908257","association":"Dinapa Farmers Association"},{"municipality":"Tiwi","lat":"13.489628","province":"Albay","lon":"123.620308","barangay":"Joroan","association":"Joroan Farmers and Fisherfollks Association"},{"municipality":"Paracale","lat":"14.269422","province":"Camarines Norte","lon":"122.820835","barangay":"Labnig","association":"Paracale Corn and Cassava Farmers Association"},{"barangay":"Marigondon","municipality":"Pio Duran","lon":"123.431072","lat":"13.054393","province":"Albay","association":"AMIA (Asenso Marigondon Irrigators Association)"},{"barangay":"Peñafrancia","lat":"13.885986","lon":"124.319818","municipality":"Viga","association":"Peñafrancia Farmers and Fisherfolks Association","province":"Catanduanes"},{"province":"Masbate","municipality":"Uson","association":" Quezon Small Farmers Association MaQueba (Magsaysay,Quezon and Badling","barangay":"Quezon","lat":"12.193129","lon":"123.801844"},{"lon":"124.172603","province":"Sorsogon","lat":"13.028927","municipality":"Prieto Diaz","association":"San Isidro Farmers Association","barangay":"San Isidro"},{"municipality":"Uson","lat":"12.190327","association":"San Mateo Farmers Association","barangay":"San Mateo","province":"Masbate","lon":"123.817117"},{"lon":"123.046109","province":"Camarines Sur","barangay":"Tampadong","lat":"13.567574","municipality":"Pamplona","association":"TARBA (Tampadong Agrarian Reform Beneficiaries Association)"},{"municipality":"Pamplona","barangay":"Veneracion","lon":"123.062039","lat":"13.555508","association":" VEVUFAI (Veneracion Urban Farmers Assocaition,Inc.)","province":"Camarines Sur"}]},"__N_SSG":true}