{"pageProps":{"villages":[{"lon":"123.343322","province":"Masbate","association":"Alas Farmers Association","municipality":"Mandaon","barangay":"Alas","lat":"12.261882"},{"barangay":"Alayao","association":"Cabibiroc-Alayao Farmers Association (CAFA)","lat":"14.283999","lon":"122.557276","municipality":"Capalonga","province":"Camarines Norte"},{"association":"Biong Farmers Association","lat":"13.77147","barangay":"Biong","municipality":"Gigmoto","lon":"124.362139","province":"Catanduanes"},{"lat":"13.63714","province":"Camarines Sur","barangay":"Cagbunga","association":"Cagbunga Riverside Farmers Organization","lon":"123.106714","municipality":"Pamplona"},{"lat":"12.908257","lon":"123.786951","province":"Sorsogon","municipality":"Castilla","barangay":"Dinapa","association":"Dinapa Farmers Association"},{"municipality":"Tiwi","association":"Joroan Farmers and Fisherfollks Association","lat":"13.489628","province":"Albay","barangay":"Joroan","lon":"123.620308"},{"municipality":"Paracale","association":"Paracale Corn and Cassava Farmers Association","province":"Camarines Norte","lat":"14.269422","barangay":"Labnig","lon":"122.820835"},{"lat":"13.054393","municipality":"Pio Duran","association":"AMIA (Asenso Marigondon Irrigators Association)","barangay":"Marigondon","province":"Albay","lon":"123.431072"},{"province":"Catanduanes","association":"Peñafrancia Farmers and Fisherfolks Association","lat":"13.885986","barangay":"Peñafrancia","lon":"124.319818","municipality":"Viga"},{"municipality":"Uson","barangay":"Quezon","lat":"12.193129","province":"Masbate","association":" Quezon Small Farmers Association MaQueba (Magsaysay,Quezon and Badling","lon":"123.801844"},{"barangay":"San Isidro","province":"Sorsogon","lat":"13.028927","lon":"124.172603","municipality":"Prieto Diaz","association":"San Isidro Farmers Association"},{"lat":"12.190327","province":"Masbate","lon":"123.817117","barangay":"San Mateo","association":"San Mateo Farmers Association","municipality":"Uson"},{"barangay":"Tampadong","lon":"123.046109","municipality":"Pamplona","lat":"13.567574","province":"Camarines Sur","association":"TARBA (Tampadong Agrarian Reform Beneficiaries Association)"},{"municipality":"Pamplona","lat":"13.555508","association":" VEVUFAI (Veneracion Urban Farmers Assocaition,Inc.)","lon":"123.062039","province":"Camarines Sur","barangay":"Veneracion"}],"media":["https://firebasestorage.googleapis.com/v0/b/amia-cis-dev.appspot.com/o/media%2Fimages%2Fgallery%2Fth_clouds.png?alt=media&token=be6d403d-c2d7-4970-9be8-caa1ec484dd2","https://firebasestorage.googleapis.com/v0/b/amia-cis-dev.appspot.com/o/media%2Fimages%2Fgallery%2Fth_seasonal.png?alt=media&token=884f1234-bfc5-4927-91c7-006a90110a24","https://firebasestorage.googleapis.com/v0/b/amia-cis-dev.appspot.com/o/media%2Fimages%2Fgallery%2Fth_typhoon_03.png?alt=media&token=864f099e-29f8-4a17-b282-0af0c121254a"],"info":{"description":"View or download bulletin PDF recommendations for the Seasonal and 10-Day Weather Outlook","url":"https://firebasestorage.googleapis.com/v0/b/amia-cis-dev.appspot.com/o/media%2Fimages%2Fopengraph%2F1200x600%2Fog_bulletins_1200.png?alt=media&token=54e900b0-cb13-4f0f-9418-b8052580ffeb","path":"https://amia-cis.github.io/bulletins"}},"__N_SSG":true}