{"pageProps":{"villages":[{"lat":"12.261882","association":"Alas Farmers Association","municipality":"Mandaon","barangay":"Alas","lon":"123.343322","province":"Masbate"},{"lon":"122.557276","barangay":"Alayao","province":"Camarines Norte","municipality":"Capalonga","lat":"14.283999","association":"Cabibiroc-Alayao Farmers Association (CAFA)"},{"province":"Catanduanes","barangay":"Biong","municipality":"Gigmoto","association":"Biong Farmers Association","lat":"13.77147","lon":"124.362139"},{"lon":"123.106714","barangay":"Cagbunga","province":"Camarines Sur","lat":"13.63714","association":"Cagbunga Riverside Farmers Organization","municipality":"Pamplona"},{"municipality":"Castilla","association":"Dinapa Farmers Association","lon":"123.786951","province":"Sorsogon","lat":"12.908257","barangay":"Dinapa"},{"association":"Joroan Farmers and Fisherfollks Association","province":"Albay","municipality":"Tiwi","lat":"13.489628","barangay":"Joroan","lon":"123.620308"},{"province":"Camarines Norte","association":"Paracale Corn and Cassava Farmers Association","barangay":"Labnig","lon":"122.820835","municipality":"Paracale","lat":"14.269422"},{"lon":"123.431072","municipality":"Pio Duran","barangay":"Marigondon","association":"AMIA (Asenso Marigondon Irrigators Association)","lat":"13.054393","province":"Albay"},{"association":"Peñafrancia Farmers and Fisherfolks Association","province":"Catanduanes","municipality":"Viga","lat":"13.885986","barangay":"Peñafrancia","lon":"124.319818"},{"lat":"12.193129","municipality":"Uson","lon":"123.801844","barangay":"Quezon","province":"Masbate","association":" Quezon Small Farmers Association MaQueba (Magsaysay,Quezon and Badling"},{"barangay":"San Isidro","association":"San Isidro Farmers Association","lat":"13.028927","lon":"124.172603","municipality":"Prieto Diaz","province":"Sorsogon"},{"lon":"123.817117","province":"Masbate","municipality":"Uson","association":"San Mateo Farmers Association","barangay":"San Mateo","lat":"12.190327"},{"association":"TARBA (Tampadong Agrarian Reform Beneficiaries Association)","province":"Camarines Sur","municipality":"Pamplona","barangay":"Tampadong","lat":"13.567574","lon":"123.046109"},{"lon":"123.062039","province":"Camarines Sur","lat":"13.555508","municipality":"Pamplona","association":" VEVUFAI (Veneracion Urban Farmers Assocaition,Inc.)","barangay":"Veneracion"}],"media":{"description":"Agro-Climatic Advisory Portal-Bicol (ACAP-BICOL) serves as a centralized hub for the development of Climate Information Services (CIS) in the Bicol Region. It contains relevant weather and climate information which can be used in developing tailored advisories and crop recommendations.","url":"https://firebasestorage.googleapis.com/v0/b/amia-cis-dev.appspot.com/o/media%2Fimages%2Fopengraph%2F1200x600%2Fog_home_1200.png?alt=media&token=51f9241c-45da-456e-9906-677c2f8fe93a","path":"https://amia-cis.github.io"}},"__N_SSG":true}