{"pageProps":{"villages":[{"municipality":"Mandaon","lon":"123.343322","province":"Masbate","association":"Alas Farmers Association","barangay":"Alas","lat":"12.261882"},{"lon":"122.557276","association":"Cabibiroc-Alayao Farmers Association (CAFA)","lat":"14.283999","province":"Camarines Norte","barangay":"Alayao","municipality":"Capalonga"},{"association":"Biong Farmers Association","province":"Catanduanes","lon":"124.362139","barangay":"Biong","lat":"13.77147","municipality":"Gigmoto"},{"association":"Cagbunga Riverside Farmers Organization","municipality":"Pamplona","province":"Camarines Sur","barangay":"Cagbunga","lat":"13.63714","lon":"123.106714"},{"province":"Sorsogon","lat":"12.908257","association":"Dinapa Farmers Association","municipality":"Castilla","lon":"123.786951","barangay":"Dinapa"},{"barangay":"Joroan","association":"Joroan Farmers and Fisherfollks Association","lon":"123.620308","province":"Albay","lat":"13.489628","municipality":"Tiwi"},{"lat":"14.269422","municipality":"Paracale","lon":"122.820835","province":"Camarines Norte","association":"Paracale Corn and Cassava Farmers Association","barangay":"Labnig"},{"barangay":"Marigondon","province":"Albay","association":"AMIA (Asenso Marigondon Irrigators Association)","lat":"13.054393","municipality":"Pio Duran","lon":"123.431072"},{"lat":"13.885986","barangay":"Peñafrancia","association":"Peñafrancia Farmers and Fisherfolks Association","lon":"124.319818","municipality":"Viga","province":"Catanduanes"},{"municipality":"Uson","lon":"123.801844","lat":"12.193129","province":"Masbate","association":" Quezon Small Farmers Association MaQueba (Magsaysay,Quezon and Badling","barangay":"Quezon"},{"lat":"13.028927","lon":"124.172603","association":"San Isidro Farmers Association","province":"Sorsogon","municipality":"Prieto Diaz","barangay":"San Isidro"},{"province":"Masbate","association":"San Mateo Farmers Association","lat":"12.190327","lon":"123.817117","barangay":"San Mateo","municipality":"Uson"},{"lat":"13.567574","province":"Camarines Sur","barangay":"Tampadong","lon":"123.046109","association":"TARBA (Tampadong Agrarian Reform Beneficiaries Association)","municipality":"Pamplona"},{"province":"Camarines Sur","barangay":"Veneracion","lat":"13.555508","association":" VEVUFAI (Veneracion Urban Farmers Assocaition,Inc.)","municipality":"Pamplona","lon":"123.062039"}]},"__N_SSG":true}