{"pageProps":{"villages":[{"association":"Alas Farmers Association","lat":"12.261882","province":"Masbate","barangay":"Alas","lon":"123.343322","municipality":"Mandaon"},{"province":"Camarines Norte","lon":"122.557276","association":"Cabibiroc-Alayao Farmers Association (CAFA)","lat":"14.283999","barangay":"Alayao","municipality":"Capalonga"},{"municipality":"Gigmoto","lon":"124.362139","province":"Catanduanes","lat":"13.77147","association":"Biong Farmers Association","barangay":"Biong"},{"barangay":"Cagbunga","province":"Camarines Sur","lat":"13.63714","lon":"123.106714","association":"Cagbunga Riverside Farmers Organization","municipality":"Pamplona"},{"barangay":"Dinapa","association":"Dinapa Farmers Association","lon":"123.786951","province":"Sorsogon","municipality":"Castilla","lat":"12.908257"},{"lat":"13.489628","province":"Albay","lon":"123.620308","barangay":"Joroan","municipality":"Tiwi","association":"Joroan Farmers and Fisherfollks Association"},{"lon":"122.820835","province":"Camarines Norte","association":"Paracale Corn and Cassava Farmers Association","lat":"14.269422","barangay":"Labnig","municipality":"Paracale"},{"lon":"123.431072","barangay":"Marigondon","municipality":"Pio Duran","province":"Albay","association":"AMIA (Asenso Marigondon Irrigators Association)","lat":"13.054393"},{"barangay":"Peñafrancia","lon":"124.319818","municipality":"Viga","province":"Catanduanes","lat":"13.885986","association":"Peñafrancia Farmers and Fisherfolks Association"},{"association":" Quezon Small Farmers Association MaQueba (Magsaysay,Quezon and Badling","municipality":"Uson","province":"Masbate","lat":"12.193129","barangay":"Quezon","lon":"123.801844"},{"lon":"124.172603","association":"San Isidro Farmers Association","barangay":"San Isidro","lat":"13.028927","province":"Sorsogon","municipality":"Prieto Diaz"},{"barangay":"San Mateo","lon":"123.817117","province":"Masbate","lat":"12.190327","municipality":"Uson","association":"San Mateo Farmers Association"},{"barangay":"Tampadong","association":"TARBA (Tampadong Agrarian Reform Beneficiaries Association)","province":"Camarines Sur","lat":"13.567574","municipality":"Pamplona","lon":"123.046109"},{"province":"Camarines Sur","lon":"123.062039","barangay":"Veneracion","municipality":"Pamplona","lat":"13.555508","association":" VEVUFAI (Veneracion Urban Farmers Assocaition,Inc.)"}]},"__N_SSG":true}