{"pageProps":{"villages":[{"lon":"123.343322","barangay":"Alas","lat":"12.261882","municipality":"Mandaon","association":"Alas Farmers Association","province":"Masbate"},{"barangay":"Alayao","lat":"14.283999","lon":"122.557276","municipality":"Capalonga","association":"Cabibiroc-Alayao Farmers Association (CAFA)","province":"Camarines Norte"},{"province":"Catanduanes","barangay":"Biong","municipality":"Gigmoto","association":"Biong Farmers Association","lat":"13.77147","lon":"124.362139"},{"lon":"123.106714","lat":"13.63714","municipality":"Pamplona","barangay":"Cagbunga","association":"Cagbunga Riverside Farmers Organization","province":"Camarines Sur"},{"association":"Dinapa Farmers Association","province":"Sorsogon","municipality":"Castilla","barangay":"Dinapa","lon":"123.786951","lat":"12.908257"},{"lat":"13.489628","barangay":"Joroan","province":"Albay","lon":"123.620308","municipality":"Tiwi","association":"Joroan Farmers and Fisherfollks Association"},{"municipality":"Paracale","lon":"122.820835","association":"Paracale Corn and Cassava Farmers Association","lat":"14.269422","province":"Camarines Norte","barangay":"Labnig"},{"barangay":"Marigondon","lat":"13.054393","lon":"123.431072","municipality":"Pio Duran","province":"Albay","association":"AMIA (Asenso Marigondon Irrigators Association)"},{"municipality":"Viga","association":"Peñafrancia Farmers and Fisherfolks Association","lon":"124.319818","province":"Catanduanes","lat":"13.885986","barangay":"Peñafrancia"},{"province":"Masbate","lat":"12.193129","lon":"123.801844","association":" Quezon Small Farmers Association MaQueba (Magsaysay,Quezon and Badling","barangay":"Quezon","municipality":"Uson"},{"association":"San Isidro Farmers Association","municipality":"Prieto Diaz","barangay":"San Isidro","lon":"124.172603","province":"Sorsogon","lat":"13.028927"},{"province":"Masbate","barangay":"San Mateo","lon":"123.817117","association":"San Mateo Farmers Association","municipality":"Uson","lat":"12.190327"},{"association":"TARBA (Tampadong Agrarian Reform Beneficiaries Association)","barangay":"Tampadong","lat":"13.567574","lon":"123.046109","municipality":"Pamplona","province":"Camarines Sur"},{"association":" VEVUFAI (Veneracion Urban Farmers Assocaition,Inc.)","lat":"13.555508","province":"Camarines Sur","barangay":"Veneracion","municipality":"Pamplona","lon":"123.062039"}],"media":{"description":"Download Special Weather Forecast PDF bulletins.","url":"https://firebasestorage.googleapis.com/v0/b/amia-cis-dev.appspot.com/o/media%2Fimages%2Fopengraph%2F1200x600%2Fog_bulletins_typhoon.png?alt=media&token=2b5a0bba-0272-463e-aed3-1d0fc975646f","path":"https://amia-cis.github.io/bulletins/special-weather-forecast"}},"__N_SSG":true}