{"pageProps":{"villages":[{"association":"Alas Farmers Association","barangay":"Alas","lat":"12.261882","municipality":"Mandaon","province":"Masbate","lon":"123.343322"},{"lon":"122.557276","province":"Camarines Norte","lat":"14.283999","municipality":"Capalonga","barangay":"Alayao","association":"Cabibiroc-Alayao Farmers Association (CAFA)"},{"barangay":"Biong","association":"Biong Farmers Association","municipality":"Gigmoto","province":"Catanduanes","lon":"124.362139","lat":"13.77147"},{"association":"Cagbunga Riverside Farmers Organization","province":"Camarines Sur","lat":"13.63714","municipality":"Pamplona","barangay":"Cagbunga","lon":"123.106714"},{"lat":"12.908257","lon":"123.786951","association":"Dinapa Farmers Association","municipality":"Castilla","barangay":"Dinapa","province":"Sorsogon"},{"lat":"13.489628","association":"Joroan Farmers and Fisherfollks Association","barangay":"Joroan","municipality":"Tiwi","province":"Albay","lon":"123.620308"},{"lat":"14.269422","municipality":"Paracale","province":"Camarines Norte","association":"Paracale Corn and Cassava Farmers Association","lon":"122.820835","barangay":"Labnig"},{"lon":"123.431072","province":"Albay","municipality":"Pio Duran","association":"AMIA (Asenso Marigondon Irrigators Association)","barangay":"Marigondon","lat":"13.054393"},{"municipality":"Viga","lat":"13.885986","association":"Peñafrancia Farmers and Fisherfolks Association","lon":"124.319818","province":"Catanduanes","barangay":"Peñafrancia"},{"municipality":"Uson","barangay":"Quezon","association":" Quezon Small Farmers Association MaQueba (Magsaysay,Quezon and Badling","province":"Masbate","lon":"123.801844","lat":"12.193129"},{"lon":"124.172603","province":"Sorsogon","municipality":"Prieto Diaz","association":"San Isidro Farmers Association","barangay":"San Isidro","lat":"13.028927"},{"lon":"123.817117","association":"San Mateo Farmers Association","municipality":"Uson","lat":"12.190327","province":"Masbate","barangay":"San Mateo"},{"association":"TARBA (Tampadong Agrarian Reform Beneficiaries Association)","lon":"123.046109","lat":"13.567574","municipality":"Pamplona","province":"Camarines Sur","barangay":"Tampadong"},{"lat":"13.555508","barangay":"Veneracion","province":"Camarines Sur","association":" VEVUFAI (Veneracion Urban Farmers Assocaition,Inc.)","lon":"123.062039","municipality":"Pamplona"}]},"__N_SSG":true}