{"pageProps":{"villages":[{"association":"Alas Farmers Association","barangay":"Alas","municipality":"Mandaon","lat":"12.261882","province":"Masbate","lon":"123.343322"},{"barangay":"Alayao","lon":"122.557276","province":"Camarines Norte","lat":"14.283999","municipality":"Capalonga","association":"Cabibiroc-Alayao Farmers Association (CAFA)"},{"barangay":"Biong","lon":"124.362139","province":"Catanduanes","lat":"13.77147","association":"Biong Farmers Association","municipality":"Gigmoto"},{"barangay":"Cagbunga","municipality":"Pamplona","province":"Camarines Sur","lon":"123.106714","lat":"13.63714","association":"Cagbunga Riverside Farmers Organization"},{"municipality":"Castilla","lat":"12.908257","province":"Sorsogon","lon":"123.786951","association":"Dinapa Farmers Association","barangay":"Dinapa"},{"association":"Joroan Farmers and Fisherfollks Association","province":"Albay","municipality":"Tiwi","barangay":"Joroan","lat":"13.489628","lon":"123.620308"},{"barangay":"Labnig","lat":"14.269422","province":"Camarines Norte","lon":"122.820835","municipality":"Paracale","association":"Paracale Corn and Cassava Farmers Association"},{"association":"AMIA (Asenso Marigondon Irrigators Association)","province":"Albay","municipality":"Pio Duran","barangay":"Marigondon","lon":"123.431072","lat":"13.054393"},{"province":"Catanduanes","association":"Peñafrancia Farmers and Fisherfolks Association","lon":"124.319818","municipality":"Viga","barangay":"Peñafrancia","lat":"13.885986"},{"association":" Quezon Small Farmers Association MaQueba (Magsaysay,Quezon and Badling","lat":"12.193129","province":"Masbate","municipality":"Uson","lon":"123.801844","barangay":"Quezon"},{"lon":"124.172603","province":"Sorsogon","barangay":"San Isidro","municipality":"Prieto Diaz","lat":"13.028927","association":"San Isidro Farmers Association"},{"province":"Masbate","association":"San Mateo Farmers Association","lon":"123.817117","municipality":"Uson","barangay":"San Mateo","lat":"12.190327"},{"province":"Camarines Sur","lat":"13.567574","municipality":"Pamplona","barangay":"Tampadong","association":"TARBA (Tampadong Agrarian Reform Beneficiaries Association)","lon":"123.046109"},{"municipality":"Pamplona","province":"Camarines Sur","lat":"13.555508","association":" VEVUFAI (Veneracion Urban Farmers Assocaition,Inc.)","barangay":"Veneracion","lon":"123.062039"}],"media":["https://firebasestorage.googleapis.com/v0/b/amia-cis-dev.appspot.com/o/media%2Fimages%2Fgallery%2Fth_clouds.png?alt=media&token=be6d403d-c2d7-4970-9be8-caa1ec484dd2","https://firebasestorage.googleapis.com/v0/b/amia-cis-dev.appspot.com/o/media%2Fimages%2Fgallery%2Fth_seasonal.png?alt=media&token=884f1234-bfc5-4927-91c7-006a90110a24","https://firebasestorage.googleapis.com/v0/b/amia-cis-dev.appspot.com/o/media%2Fimages%2Fgallery%2Fth_typhoon_03.png?alt=media&token=864f099e-29f8-4a17-b282-0af0c121254a"]},"__N_SSG":true}