{"pageProps":{"villages":[{"municipality":"Mandaon","province":"Masbate","lat":"12.261882","association":"Alas Farmers Association","barangay":"Alas","lon":"123.343322"},{"lon":"122.557276","association":"Cabibiroc-Alayao Farmers Association (CAFA)","province":"Camarines Norte","lat":"14.283999","municipality":"Capalonga","barangay":"Alayao"},{"municipality":"Gigmoto","lat":"13.77147","barangay":"Biong","province":"Catanduanes","association":"Biong Farmers Association","lon":"124.362139"},{"barangay":"Cagbunga","lon":"123.106714","province":"Camarines Sur","association":"Cagbunga Riverside Farmers Organization","lat":"13.63714","municipality":"Pamplona"},{"lon":"123.786951","lat":"12.908257","barangay":"Dinapa","association":"Dinapa Farmers Association","municipality":"Castilla","province":"Sorsogon"},{"province":"Albay","lat":"13.489628","association":"Joroan Farmers and Fisherfollks Association","municipality":"Tiwi","lon":"123.620308","barangay":"Joroan"},{"association":"Paracale Corn and Cassava Farmers Association","municipality":"Paracale","lon":"122.820835","province":"Camarines Norte","lat":"14.269422","barangay":"Labnig"},{"association":"AMIA (Asenso Marigondon Irrigators Association)","lat":"13.054393","province":"Albay","lon":"123.431072","barangay":"Marigondon","municipality":"Pio Duran"},{"municipality":"Viga","association":"Peñafrancia Farmers and Fisherfolks Association","barangay":"Peñafrancia","province":"Catanduanes","lon":"124.319818","lat":"13.885986"},{"association":" Quezon Small Farmers Association MaQueba (Magsaysay,Quezon and Badling","lon":"123.801844","municipality":"Uson","province":"Masbate","lat":"12.193129","barangay":"Quezon"},{"lon":"124.172603","association":"San Isidro Farmers Association","municipality":"Prieto Diaz","lat":"13.028927","barangay":"San Isidro","province":"Sorsogon"},{"municipality":"Uson","province":"Masbate","lon":"123.817117","lat":"12.190327","association":"San Mateo Farmers Association","barangay":"San Mateo"},{"municipality":"Pamplona","association":"TARBA (Tampadong Agrarian Reform Beneficiaries Association)","lat":"13.567574","barangay":"Tampadong","province":"Camarines Sur","lon":"123.046109"},{"lat":"13.555508","barangay":"Veneracion","province":"Camarines Sur","lon":"123.062039","association":" VEVUFAI (Veneracion Urban Farmers Assocaition,Inc.)","municipality":"Pamplona"}]},"__N_SSG":true}