{"pageProps":{"villages":[{"province":"Masbate","lon":"123.343322","lat":"12.261882","association":"Alas Farmers Association","municipality":"Mandaon","barangay":"Alas"},{"lon":"122.557276","municipality":"Capalonga","province":"Camarines Norte","lat":"14.283999","association":"Cabibiroc-Alayao Farmers Association (CAFA)","barangay":"Alayao"},{"province":"Catanduanes","association":"Biong Farmers Association","municipality":"Gigmoto","lon":"124.362139","barangay":"Biong","lat":"13.77147"},{"lat":"13.63714","association":"Cagbunga Riverside Farmers Organization","lon":"123.106714","barangay":"Cagbunga","province":"Camarines Sur","municipality":"Pamplona"},{"province":"Sorsogon","municipality":"Castilla","lat":"12.908257","barangay":"Dinapa","lon":"123.786951","association":"Dinapa Farmers Association"},{"province":"Albay","municipality":"Tiwi","lat":"13.489628","lon":"123.620308","association":"Joroan Farmers and Fisherfollks Association","barangay":"Joroan"},{"barangay":"Labnig","municipality":"Paracale","lat":"14.269422","association":"Paracale Corn and Cassava Farmers Association","province":"Camarines Norte","lon":"122.820835"},{"lon":"123.431072","association":"AMIA (Asenso Marigondon Irrigators Association)","province":"Albay","municipality":"Pio Duran","barangay":"Marigondon","lat":"13.054393"},{"lat":"13.885986","association":"Peñafrancia Farmers and Fisherfolks Association","barangay":"Peñafrancia","municipality":"Viga","lon":"124.319818","province":"Catanduanes"},{"lat":"12.193129","association":" Quezon Small Farmers Association MaQueba (Magsaysay,Quezon and Badling","barangay":"Quezon","lon":"123.801844","province":"Masbate","municipality":"Uson"},{"lon":"124.172603","barangay":"San Isidro","province":"Sorsogon","association":"San Isidro Farmers Association","municipality":"Prieto Diaz","lat":"13.028927"},{"municipality":"Uson","lon":"123.817117","lat":"12.190327","association":"San Mateo Farmers Association","province":"Masbate","barangay":"San Mateo"},{"lon":"123.046109","municipality":"Pamplona","province":"Camarines Sur","barangay":"Tampadong","association":"TARBA (Tampadong Agrarian Reform Beneficiaries Association)","lat":"13.567574"},{"municipality":"Pamplona","barangay":"Veneracion","lat":"13.555508","lon":"123.062039","association":" VEVUFAI (Veneracion Urban Farmers Assocaition,Inc.)","province":"Camarines Sur"}]},"__N_SSG":true}