{"pageProps":{"villages":[{"municipality":"Mandaon","association":"Alas Farmers Association","barangay":"Alas","lon":"123.343322","province":"Masbate","lat":"12.261882"},{"lat":"14.283999","lon":"122.557276","municipality":"Capalonga","association":"Cabibiroc-Alayao Farmers Association (CAFA)","barangay":"Alayao","province":"Camarines Norte"},{"lat":"13.77147","barangay":"Biong","association":"Biong Farmers Association","municipality":"Gigmoto","lon":"124.362139","province":"Catanduanes"},{"lon":"123.106714","municipality":"Pamplona","lat":"13.63714","province":"Camarines Sur","association":"Cagbunga Riverside Farmers Organization","barangay":"Cagbunga"},{"province":"Sorsogon","association":"Dinapa Farmers Association","municipality":"Castilla","lat":"12.908257","lon":"123.786951","barangay":"Dinapa"},{"association":"Joroan Farmers and Fisherfollks Association","lon":"123.620308","barangay":"Joroan","province":"Albay","municipality":"Tiwi","lat":"13.489628"},{"province":"Camarines Norte","lat":"14.269422","lon":"122.820835","municipality":"Paracale","association":"Paracale Corn and Cassava Farmers Association","barangay":"Labnig"},{"lat":"13.054393","province":"Albay","barangay":"Marigondon","municipality":"Pio Duran","association":"AMIA (Asenso Marigondon Irrigators Association)","lon":"123.431072"},{"province":"Catanduanes","barangay":"Peñafrancia","lat":"13.885986","association":"Peñafrancia Farmers and Fisherfolks Association","municipality":"Viga","lon":"124.319818"},{"lat":"12.193129","association":" Quezon Small Farmers Association MaQueba (Magsaysay,Quezon and Badling","municipality":"Uson","province":"Masbate","barangay":"Quezon","lon":"123.801844"},{"province":"Sorsogon","association":"San Isidro Farmers Association","lon":"124.172603","barangay":"San Isidro","lat":"13.028927","municipality":"Prieto Diaz"},{"lat":"12.190327","province":"Masbate","association":"San Mateo Farmers Association","municipality":"Uson","lon":"123.817117","barangay":"San Mateo"},{"lat":"13.567574","province":"Camarines Sur","lon":"123.046109","municipality":"Pamplona","association":"TARBA (Tampadong Agrarian Reform Beneficiaries Association)","barangay":"Tampadong"},{"municipality":"Pamplona","barangay":"Veneracion","association":" VEVUFAI (Veneracion Urban Farmers Assocaition,Inc.)","lat":"13.555508","lon":"123.062039","province":"Camarines Sur"}]},"__N_SSG":true}