{"pageProps":{"villages":[{"province":"Masbate","barangay":"Alas","lon":"123.343322","association":"Alas Farmers Association","municipality":"Mandaon","lat":"12.261882"},{"lat":"14.283999","barangay":"Alayao","province":"Camarines Norte","lon":"122.557276","association":"Cabibiroc-Alayao Farmers Association (CAFA)","municipality":"Capalonga"},{"barangay":"Biong","province":"Catanduanes","association":"Biong Farmers Association","lon":"124.362139","lat":"13.77147","municipality":"Gigmoto"},{"lat":"13.63714","province":"Camarines Sur","association":"Cagbunga Riverside Farmers Organization","barangay":"Cagbunga","municipality":"Pamplona","lon":"123.106714"},{"barangay":"Dinapa","province":"Sorsogon","lat":"12.908257","municipality":"Castilla","lon":"123.786951","association":"Dinapa Farmers Association"},{"barangay":"Joroan","province":"Albay","municipality":"Tiwi","association":"Joroan Farmers and Fisherfollks Association","lat":"13.489628","lon":"123.620308"},{"province":"Camarines Norte","barangay":"Labnig","lon":"122.820835","association":"Paracale Corn and Cassava Farmers Association","lat":"14.269422","municipality":"Paracale"},{"province":"Albay","barangay":"Marigondon","lon":"123.431072","municipality":"Pio Duran","lat":"13.054393","association":"AMIA (Asenso Marigondon Irrigators Association)"},{"barangay":"Peñafrancia","lon":"124.319818","municipality":"Viga","association":"Peñafrancia Farmers and Fisherfolks Association","lat":"13.885986","province":"Catanduanes"},{"barangay":"Quezon","province":"Masbate","association":" Quezon Small Farmers Association MaQueba (Magsaysay,Quezon and Badling","lon":"123.801844","lat":"12.193129","municipality":"Uson"},{"barangay":"San Isidro","municipality":"Prieto Diaz","lon":"124.172603","lat":"13.028927","association":"San Isidro Farmers Association","province":"Sorsogon"},{"lon":"123.817117","barangay":"San Mateo","association":"San Mateo Farmers Association","province":"Masbate","municipality":"Uson","lat":"12.190327"},{"lon":"123.046109","municipality":"Pamplona","lat":"13.567574","province":"Camarines Sur","barangay":"Tampadong","association":"TARBA (Tampadong Agrarian Reform Beneficiaries Association)"},{"lon":"123.062039","province":"Camarines Sur","barangay":"Veneracion","association":" VEVUFAI (Veneracion Urban Farmers Assocaition,Inc.)","lat":"13.555508","municipality":"Pamplona"}],"media":{"description":"Download 10-Day Farm Weather Outlook PDF bulletins.","url":"https://firebasestorage.googleapis.com/v0/b/amia-cis-dev.appspot.com/o/media%2Fimages%2Fopengraph%2F1200x600%2Fog_bulletins_10day.png?alt=media&token=edc4d622-31fb-44c3-8068-cd29884600c9","path":"https://amia-cis.github.io/bulletins/weather"}},"__N_SSG":true}