{"pageProps":{"villages":[{"lat":"12.261882","municipality":"Mandaon","province":"Masbate","barangay":"Alas","lon":"123.343322","association":"Alas Farmers Association"},{"municipality":"Capalonga","lat":"14.283999","barangay":"Alayao","association":"Cabibiroc-Alayao Farmers Association (CAFA)","lon":"122.557276","province":"Camarines Norte"},{"lon":"124.362139","association":"Biong Farmers Association","lat":"13.77147","barangay":"Biong","province":"Catanduanes","municipality":"Gigmoto"},{"barangay":"Cagbunga","municipality":"Pamplona","association":"Cagbunga Riverside Farmers Organization","lat":"13.63714","lon":"123.106714","province":"Camarines Sur"},{"lat":"12.908257","province":"Sorsogon","barangay":"Dinapa","association":"Dinapa Farmers Association","lon":"123.786951","municipality":"Castilla"},{"lon":"123.620308","barangay":"Joroan","lat":"13.489628","province":"Albay","association":"Joroan Farmers and Fisherfollks Association","municipality":"Tiwi"},{"lon":"122.820835","municipality":"Paracale","lat":"14.269422","barangay":"Labnig","province":"Camarines Norte","association":"Paracale Corn and Cassava Farmers Association"},{"lon":"123.431072","barangay":"Marigondon","municipality":"Pio Duran","association":"AMIA (Asenso Marigondon Irrigators Association)","lat":"13.054393","province":"Albay"},{"municipality":"Viga","lon":"124.319818","lat":"13.885986","barangay":"Peñafrancia","association":"Peñafrancia Farmers and Fisherfolks Association","province":"Catanduanes"},{"barangay":"Quezon","association":" Quezon Small Farmers Association MaQueba (Magsaysay,Quezon and Badling","lat":"12.193129","municipality":"Uson","lon":"123.801844","province":"Masbate"},{"municipality":"Prieto Diaz","lon":"124.172603","province":"Sorsogon","barangay":"San Isidro","association":"San Isidro Farmers Association","lat":"13.028927"},{"province":"Masbate","association":"San Mateo Farmers Association","barangay":"San Mateo","lat":"12.190327","lon":"123.817117","municipality":"Uson"},{"municipality":"Pamplona","lon":"123.046109","barangay":"Tampadong","province":"Camarines Sur","association":"TARBA (Tampadong Agrarian Reform Beneficiaries Association)","lat":"13.567574"},{"barangay":"Veneracion","lat":"13.555508","municipality":"Pamplona","lon":"123.062039","province":"Camarines Sur","association":" VEVUFAI (Veneracion Urban Farmers Assocaition,Inc.)"}],"media":{"description":"Agro-Climatic Advisory Portal-Bicol (ACAP-BICOL) serves as a centralized hub for the development of Climate Information Services (CIS) in the Bicol Region. It contains relevant weather and climate information which can be used in developing tailored advisories and crop recommendations.","url":"https://firebasestorage.googleapis.com/v0/b/amia-cis-dev.appspot.com/o/media%2Fimages%2Fopengraph%2F1200x600%2Fog_home_1200.png?alt=media&token=51f9241c-45da-456e-9906-677c2f8fe93a","path":"https://amia-cis.github.io"}},"__N_SSG":true}