{"pageProps":{"villages":[{"province":"Masbate","lon":"123.343322","barangay":"Alas","lat":"12.261882","municipality":"Mandaon","association":"Alas Farmers Association"},{"lon":"122.557276","province":"Camarines Norte","municipality":"Capalonga","lat":"14.283999","association":"Cabibiroc-Alayao Farmers Association (CAFA)","barangay":"Alayao"},{"province":"Catanduanes","barangay":"Biong","lon":"124.362139","lat":"13.77147","municipality":"Gigmoto","association":"Biong Farmers Association"},{"lat":"13.63714","association":"Cagbunga Riverside Farmers Organization","lon":"123.106714","province":"Camarines Sur","municipality":"Pamplona","barangay":"Cagbunga"},{"barangay":"Dinapa","municipality":"Castilla","lon":"123.786951","province":"Sorsogon","association":"Dinapa Farmers Association","lat":"12.908257"},{"province":"Albay","lat":"13.489628","barangay":"Joroan","association":"Joroan Farmers and Fisherfollks Association","municipality":"Tiwi","lon":"123.620308"},{"municipality":"Paracale","province":"Camarines Norte","lat":"14.269422","lon":"122.820835","barangay":"Labnig","association":"Paracale Corn and Cassava Farmers Association"},{"association":"AMIA (Asenso Marigondon Irrigators Association)","lat":"13.054393","province":"Albay","barangay":"Marigondon","lon":"123.431072","municipality":"Pio Duran"},{"lon":"124.319818","lat":"13.885986","barangay":"Peñafrancia","association":"Peñafrancia Farmers and Fisherfolks Association","municipality":"Viga","province":"Catanduanes"},{"province":"Masbate","lat":"12.193129","lon":"123.801844","municipality":"Uson","association":" Quezon Small Farmers Association MaQueba (Magsaysay,Quezon and Badling","barangay":"Quezon"},{"association":"San Isidro Farmers Association","province":"Sorsogon","barangay":"San Isidro","lon":"124.172603","municipality":"Prieto Diaz","lat":"13.028927"},{"lat":"12.190327","association":"San Mateo Farmers Association","barangay":"San Mateo","municipality":"Uson","province":"Masbate","lon":"123.817117"},{"lon":"123.046109","province":"Camarines Sur","lat":"13.567574","municipality":"Pamplona","barangay":"Tampadong","association":"TARBA (Tampadong Agrarian Reform Beneficiaries Association)"},{"barangay":"Veneracion","municipality":"Pamplona","lat":"13.555508","lon":"123.062039","association":" VEVUFAI (Veneracion Urban Farmers Assocaition,Inc.)","province":"Camarines Sur"}]},"__N_SSG":true}