{"pageProps":{"villages":[{"barangay":"Alas","association":"Alas Farmers Association","lat":"12.261882","municipality":"Mandaon","lon":"123.343322","province":"Masbate"},{"province":"Camarines Norte","lat":"14.283999","lon":"122.557276","municipality":"Capalonga","barangay":"Alayao","association":"Cabibiroc-Alayao Farmers Association (CAFA)"},{"lon":"124.362139","municipality":"Gigmoto","association":"Biong Farmers Association","lat":"13.77147","province":"Catanduanes","barangay":"Biong"},{"association":"Cagbunga Riverside Farmers Organization","municipality":"Pamplona","province":"Camarines Sur","lon":"123.106714","lat":"13.63714","barangay":"Cagbunga"},{"association":"Dinapa Farmers Association","lon":"123.786951","province":"Sorsogon","lat":"12.908257","barangay":"Dinapa","municipality":"Castilla"},{"barangay":"Joroan","municipality":"Tiwi","province":"Albay","lat":"13.489628","association":"Joroan Farmers and Fisherfollks Association","lon":"123.620308"},{"barangay":"Labnig","lon":"122.820835","province":"Camarines Norte","association":"Paracale Corn and Cassava Farmers Association","lat":"14.269422","municipality":"Paracale"},{"association":"AMIA (Asenso Marigondon Irrigators Association)","municipality":"Pio Duran","lat":"13.054393","barangay":"Marigondon","province":"Albay","lon":"123.431072"},{"lat":"13.885986","municipality":"Viga","barangay":"Peñafrancia","province":"Catanduanes","lon":"124.319818","association":"Peñafrancia Farmers and Fisherfolks Association"},{"lon":"123.801844","barangay":"Quezon","province":"Masbate","association":" Quezon Small Farmers Association MaQueba (Magsaysay,Quezon and Badling","lat":"12.193129","municipality":"Uson"},{"municipality":"Prieto Diaz","lat":"13.028927","barangay":"San Isidro","association":"San Isidro Farmers Association","lon":"124.172603","province":"Sorsogon"},{"lon":"123.817117","barangay":"San Mateo","association":"San Mateo Farmers Association","province":"Masbate","municipality":"Uson","lat":"12.190327"},{"lon":"123.046109","association":"TARBA (Tampadong Agrarian Reform Beneficiaries Association)","municipality":"Pamplona","lat":"13.567574","barangay":"Tampadong","province":"Camarines Sur"},{"association":" VEVUFAI (Veneracion Urban Farmers Assocaition,Inc.)","lat":"13.555508","province":"Camarines Sur","municipality":"Pamplona","lon":"123.062039","barangay":"Veneracion"}]},"__N_SSG":true}