{"pageProps":{"villages":[{"province":"Masbate","lon":"123.343322","municipality":"Mandaon","association":"Alas Farmers Association","barangay":"Alas","lat":"12.261882"},{"association":"Cabibiroc-Alayao Farmers Association (CAFA)","lat":"14.283999","province":"Camarines Norte","barangay":"Alayao","lon":"122.557276","municipality":"Capalonga"},{"barangay":"Biong","lat":"13.77147","municipality":"Gigmoto","lon":"124.362139","province":"Catanduanes","association":"Biong Farmers Association"},{"barangay":"Cagbunga","province":"Camarines Sur","lat":"13.63714","municipality":"Pamplona","lon":"123.106714","association":"Cagbunga Riverside Farmers Organization"},{"barangay":"Dinapa","lon":"123.786951","association":"Dinapa Farmers Association","municipality":"Castilla","lat":"12.908257","province":"Sorsogon"},{"province":"Albay","barangay":"Joroan","municipality":"Tiwi","lon":"123.620308","association":"Joroan Farmers and Fisherfollks Association","lat":"13.489628"},{"lat":"14.269422","municipality":"Paracale","lon":"122.820835","barangay":"Labnig","association":"Paracale Corn and Cassava Farmers Association","province":"Camarines Norte"},{"province":"Albay","association":"AMIA (Asenso Marigondon Irrigators Association)","lon":"123.431072","municipality":"Pio Duran","barangay":"Marigondon","lat":"13.054393"},{"municipality":"Viga","lat":"13.885986","barangay":"Peñafrancia","association":"Peñafrancia Farmers and Fisherfolks Association","lon":"124.319818","province":"Catanduanes"},{"barangay":"Quezon","association":" Quezon Small Farmers Association MaQueba (Magsaysay,Quezon and Badling","province":"Masbate","municipality":"Uson","lat":"12.193129","lon":"123.801844"},{"province":"Sorsogon","lon":"124.172603","barangay":"San Isidro","association":"San Isidro Farmers Association","lat":"13.028927","municipality":"Prieto Diaz"},{"association":"San Mateo Farmers Association","municipality":"Uson","lat":"12.190327","lon":"123.817117","barangay":"San Mateo","province":"Masbate"},{"municipality":"Pamplona","lat":"13.567574","province":"Camarines Sur","lon":"123.046109","association":"TARBA (Tampadong Agrarian Reform Beneficiaries Association)","barangay":"Tampadong"},{"municipality":"Pamplona","province":"Camarines Sur","barangay":"Veneracion","lat":"13.555508","association":" VEVUFAI (Veneracion Urban Farmers Assocaition,Inc.)","lon":"123.062039"}],"media":{"description":"Download Special Weather Forecast PDF bulletins.","url":"https://firebasestorage.googleapis.com/v0/b/amia-cis-dev.appspot.com/o/media%2Fimages%2Fopengraph%2F1200x600%2Fog_bulletins_typhoon.png?alt=media&token=2b5a0bba-0272-463e-aed3-1d0fc975646f","path":"https://amia-cis.github.io/bulletins/special-weather-forecast"}},"__N_SSG":true}