{"pageProps":{"villages":[{"association":"Alas Farmers Association","lon":"123.343322","municipality":"Mandaon","province":"Masbate","lat":"12.261882","barangay":"Alas"},{"barangay":"Alayao","municipality":"Capalonga","lat":"14.283999","province":"Camarines Norte","lon":"122.557276","association":"Cabibiroc-Alayao Farmers Association (CAFA)"},{"lat":"13.77147","municipality":"Gigmoto","lon":"124.362139","association":"Biong Farmers Association","barangay":"Biong","province":"Catanduanes"},{"province":"Camarines Sur","lat":"13.63714","barangay":"Cagbunga","municipality":"Pamplona","lon":"123.106714","association":"Cagbunga Riverside Farmers Organization"},{"barangay":"Dinapa","association":"Dinapa Farmers Association","province":"Sorsogon","municipality":"Castilla","lon":"123.786951","lat":"12.908257"},{"province":"Albay","lon":"123.620308","association":"Joroan Farmers and Fisherfollks Association","barangay":"Joroan","lat":"13.489628","municipality":"Tiwi"},{"lat":"14.269422","lon":"122.820835","municipality":"Paracale","barangay":"Labnig","association":"Paracale Corn and Cassava Farmers Association","province":"Camarines Norte"},{"lon":"123.431072","barangay":"Marigondon","association":"AMIA (Asenso Marigondon Irrigators Association)","municipality":"Pio Duran","lat":"13.054393","province":"Albay"},{"province":"Catanduanes","lon":"124.319818","barangay":"Peñafrancia","municipality":"Viga","association":"Peñafrancia Farmers and Fisherfolks Association","lat":"13.885986"},{"province":"Masbate","lon":"123.801844","lat":"12.193129","barangay":"Quezon","municipality":"Uson","association":" Quezon Small Farmers Association MaQueba (Magsaysay,Quezon and Badling"},{"lat":"13.028927","lon":"124.172603","municipality":"Prieto Diaz","association":"San Isidro Farmers Association","barangay":"San Isidro","province":"Sorsogon"},{"municipality":"Uson","barangay":"San Mateo","association":"San Mateo Farmers Association","province":"Masbate","lon":"123.817117","lat":"12.190327"},{"province":"Camarines Sur","lon":"123.046109","municipality":"Pamplona","association":"TARBA (Tampadong Agrarian Reform Beneficiaries Association)","lat":"13.567574","barangay":"Tampadong"},{"barangay":"Veneracion","lat":"13.555508","municipality":"Pamplona","province":"Camarines Sur","lon":"123.062039","association":" VEVUFAI (Veneracion Urban Farmers Assocaition,Inc.)"}],"media":{"description":"Download Special Weather Forecast PDF bulletins.","url":"https://firebasestorage.googleapis.com/v0/b/amia-cis-dev.appspot.com/o/media%2Fimages%2Fopengraph%2F1200x600%2Fog_bulletins_typhoon.png?alt=media&token=2b5a0bba-0272-463e-aed3-1d0fc975646f","path":"https://amia-cis.github.io/bulletins/special-weather-forecast"}},"__N_SSG":true}