{"pageProps":{"villages":[{"province":"Masbate","lon":"123.343322","barangay":"Alas","association":"Alas Farmers Association","municipality":"Mandaon","lat":"12.261882"},{"municipality":"Capalonga","lon":"122.557276","lat":"14.283999","association":"Cabibiroc-Alayao Farmers Association (CAFA)","barangay":"Alayao","province":"Camarines Norte"},{"lon":"124.362139","municipality":"Gigmoto","barangay":"Biong","province":"Catanduanes","lat":"13.77147","association":"Biong Farmers Association"},{"municipality":"Pamplona","lon":"123.106714","association":"Cagbunga Riverside Farmers Organization","lat":"13.63714","barangay":"Cagbunga","province":"Camarines Sur"},{"association":"Dinapa Farmers Association","province":"Sorsogon","municipality":"Castilla","lon":"123.786951","barangay":"Dinapa","lat":"12.908257"},{"lat":"13.489628","association":"Joroan Farmers and Fisherfollks Association","lon":"123.620308","barangay":"Joroan","municipality":"Tiwi","province":"Albay"},{"province":"Camarines Norte","association":"Paracale Corn and Cassava Farmers Association","lon":"122.820835","municipality":"Paracale","barangay":"Labnig","lat":"14.269422"},{"lat":"13.054393","barangay":"Marigondon","province":"Albay","association":"AMIA (Asenso Marigondon Irrigators Association)","municipality":"Pio Duran","lon":"123.431072"},{"lon":"124.319818","barangay":"Peñafrancia","municipality":"Viga","association":"Peñafrancia Farmers and Fisherfolks Association","lat":"13.885986","province":"Catanduanes"},{"lon":"123.801844","province":"Masbate","lat":"12.193129","barangay":"Quezon","municipality":"Uson","association":" Quezon Small Farmers Association MaQueba (Magsaysay,Quezon and Badling"},{"barangay":"San Isidro","lat":"13.028927","lon":"124.172603","province":"Sorsogon","association":"San Isidro Farmers Association","municipality":"Prieto Diaz"},{"lon":"123.817117","barangay":"San Mateo","municipality":"Uson","association":"San Mateo Farmers Association","province":"Masbate","lat":"12.190327"},{"barangay":"Tampadong","association":"TARBA (Tampadong Agrarian Reform Beneficiaries Association)","municipality":"Pamplona","lon":"123.046109","province":"Camarines Sur","lat":"13.567574"},{"lat":"13.555508","lon":"123.062039","barangay":"Veneracion","association":" VEVUFAI (Veneracion Urban Farmers Assocaition,Inc.)","province":"Camarines Sur","municipality":"Pamplona"}],"media":{"description":"Download 10-Day Farm Weather Outlook PDF bulletins.","url":"https://firebasestorage.googleapis.com/v0/b/amia-cis-dev.appspot.com/o/media%2Fimages%2Fopengraph%2F1200x600%2Fog_bulletins_10day.png?alt=media&token=bb3599af-0756-4c3b-8f02-04397e388125","path":"https://amia-cis.github.io/bulletins/weather"}},"__N_SSG":true}