{"pageProps":{"villages":[{"municipality":"Mandaon","province":"Masbate","lat":"12.261882","association":"Alas Farmers Association","barangay":"Alas","lon":"123.343322"},{"province":"Camarines Norte","lat":"14.283999","barangay":"Alayao","municipality":"Capalonga","association":"Cabibiroc-Alayao Farmers Association (CAFA)","lon":"122.557276"},{"lon":"124.362139","province":"Catanduanes","lat":"13.77147","barangay":"Biong","municipality":"Gigmoto","association":"Biong Farmers Association"},{"lon":"123.106714","municipality":"Pamplona","lat":"13.63714","barangay":"Cagbunga","province":"Camarines Sur","association":"Cagbunga Riverside Farmers Organization"},{"barangay":"Dinapa","province":"Sorsogon","municipality":"Castilla","lon":"123.786951","association":"Dinapa Farmers Association","lat":"12.908257"},{"province":"Albay","association":"Joroan Farmers and Fisherfollks Association","municipality":"Tiwi","lon":"123.620308","lat":"13.489628","barangay":"Joroan"},{"association":"Paracale Corn and Cassava Farmers Association","province":"Camarines Norte","municipality":"Paracale","lat":"14.269422","barangay":"Labnig","lon":"122.820835"},{"lon":"123.431072","barangay":"Marigondon","lat":"13.054393","municipality":"Pio Duran","association":"AMIA (Asenso Marigondon Irrigators Association)","province":"Albay"},{"lat":"13.885986","lon":"124.319818","association":"Peñafrancia Farmers and Fisherfolks Association","municipality":"Viga","province":"Catanduanes","barangay":"Peñafrancia"},{"lon":"123.801844","municipality":"Uson","association":" Quezon Small Farmers Association MaQueba (Magsaysay,Quezon and Badling","lat":"12.193129","barangay":"Quezon","province":"Masbate"},{"association":"San Isidro Farmers Association","municipality":"Prieto Diaz","province":"Sorsogon","barangay":"San Isidro","lat":"13.028927","lon":"124.172603"},{"province":"Masbate","lon":"123.817117","lat":"12.190327","barangay":"San Mateo","municipality":"Uson","association":"San Mateo Farmers Association"},{"lat":"13.567574","barangay":"Tampadong","municipality":"Pamplona","lon":"123.046109","association":"TARBA (Tampadong Agrarian Reform Beneficiaries Association)","province":"Camarines Sur"},{"lat":"13.555508","lon":"123.062039","municipality":"Pamplona","association":" VEVUFAI (Veneracion Urban Farmers Assocaition,Inc.)","barangay":"Veneracion","province":"Camarines Sur"}],"media":["https://firebasestorage.googleapis.com/v0/b/amia-cis-dev.appspot.com/o/media%2Fimages%2Fgallery%2Fth_clouds.png?alt=media&token=be6d403d-c2d7-4970-9be8-caa1ec484dd2","https://firebasestorage.googleapis.com/v0/b/amia-cis-dev.appspot.com/o/media%2Fimages%2Fgallery%2Fth_seasonal.png?alt=media&token=884f1234-bfc5-4927-91c7-006a90110a24","https://firebasestorage.googleapis.com/v0/b/amia-cis-dev.appspot.com/o/media%2Fimages%2Fgallery%2Fth_typhoon_03.png?alt=media&token=864f099e-29f8-4a17-b282-0af0c121254a"]},"__N_SSG":true}