{"pageProps":{"villages":[{"province":"Masbate","association":"Alas Farmers Association","municipality":"Mandaon","lon":"123.343322","lat":"12.261882","barangay":"Alas"},{"lon":"122.557276","province":"Camarines Norte","association":"Cabibiroc-Alayao Farmers Association (CAFA)","barangay":"Alayao","lat":"14.283999","municipality":"Capalonga"},{"barangay":"Biong","lat":"13.77147","association":"Biong Farmers Association","municipality":"Gigmoto","province":"Catanduanes","lon":"124.362139"},{"province":"Camarines Sur","lat":"13.63714","association":"Cagbunga Riverside Farmers Organization","barangay":"Cagbunga","municipality":"Pamplona","lon":"123.106714"},{"association":"Dinapa Farmers Association","province":"Sorsogon","barangay":"Dinapa","lat":"12.908257","lon":"123.786951","municipality":"Castilla"},{"lat":"13.489628","municipality":"Tiwi","lon":"123.620308","province":"Albay","association":"Joroan Farmers and Fisherfollks Association","barangay":"Joroan"},{"municipality":"Paracale","lon":"122.820835","association":"Paracale Corn and Cassava Farmers Association","lat":"14.269422","province":"Camarines Norte","barangay":"Labnig"},{"lat":"13.054393","municipality":"Pio Duran","province":"Albay","association":"AMIA (Asenso Marigondon Irrigators Association)","barangay":"Marigondon","lon":"123.431072"},{"lon":"124.319818","lat":"13.885986","municipality":"Viga","association":"Peñafrancia Farmers and Fisherfolks Association","barangay":"Peñafrancia","province":"Catanduanes"},{"lon":"123.801844","barangay":"Quezon","municipality":"Uson","province":"Masbate","association":" Quezon Small Farmers Association MaQueba (Magsaysay,Quezon and Badling","lat":"12.193129"},{"municipality":"Prieto Diaz","association":"San Isidro Farmers Association","barangay":"San Isidro","province":"Sorsogon","lon":"124.172603","lat":"13.028927"},{"barangay":"San Mateo","lon":"123.817117","province":"Masbate","lat":"12.190327","association":"San Mateo Farmers Association","municipality":"Uson"},{"lat":"13.567574","lon":"123.046109","municipality":"Pamplona","association":"TARBA (Tampadong Agrarian Reform Beneficiaries Association)","barangay":"Tampadong","province":"Camarines Sur"},{"province":"Camarines Sur","lat":"13.555508","lon":"123.062039","association":" VEVUFAI (Veneracion Urban Farmers Assocaition,Inc.)","municipality":"Pamplona","barangay":"Veneracion"}],"media":{"description":"Download Regional Seasonal Climate Outlook and Advisory PDF bulletins.","url":"https://firebasestorage.googleapis.com/v0/b/amia-cis-dev.appspot.com/o/media%2Fimages%2Fopengraph%2F1200x600%2Fog_bulletins_seasonal.png?alt=media&token=18cb4216-8ee9-4da8-b49c-f13fcfb025cb","path":"https://amia-cis.github.io/bulletins/seasonal-outlook"}},"__N_SSG":true}