{"pageProps":{"villages":[{"lat":"12.261882","municipality":"Mandaon","lon":"123.343322","barangay":"Alas","province":"Masbate","association":"Alas Farmers Association"},{"lat":"14.283999","barangay":"Alayao","province":"Camarines Norte","association":"Cabibiroc-Alayao Farmers Association (CAFA)","municipality":"Capalonga","lon":"122.557276"},{"association":"Biong Farmers Association","lat":"13.77147","barangay":"Biong","province":"Catanduanes","lon":"124.362139","municipality":"Gigmoto"},{"lon":"123.106714","association":"Cagbunga Riverside Farmers Organization","barangay":"Cagbunga","municipality":"Pamplona","province":"Camarines Sur","lat":"13.63714"},{"lat":"12.908257","lon":"123.786951","municipality":"Castilla","barangay":"Dinapa","province":"Sorsogon","association":"Dinapa Farmers Association"},{"lat":"13.489628","province":"Albay","association":"Joroan Farmers and Fisherfollks Association","lon":"123.620308","municipality":"Tiwi","barangay":"Joroan"},{"province":"Camarines Norte","lon":"122.820835","association":"Paracale Corn and Cassava Farmers Association","municipality":"Paracale","lat":"14.269422","barangay":"Labnig"},{"province":"Albay","barangay":"Marigondon","lon":"123.431072","association":"AMIA (Asenso Marigondon Irrigators Association)","lat":"13.054393","municipality":"Pio Duran"},{"lat":"13.885986","lon":"124.319818","province":"Catanduanes","municipality":"Viga","barangay":"Peñafrancia","association":"Peñafrancia Farmers and Fisherfolks Association"},{"lat":"12.193129","lon":"123.801844","association":" Quezon Small Farmers Association MaQueba (Magsaysay,Quezon and Badling","barangay":"Quezon","province":"Masbate","municipality":"Uson"},{"lon":"124.172603","association":"San Isidro Farmers Association","barangay":"San Isidro","municipality":"Prieto Diaz","lat":"13.028927","province":"Sorsogon"},{"municipality":"Uson","barangay":"San Mateo","lon":"123.817117","association":"San Mateo Farmers Association","lat":"12.190327","province":"Masbate"},{"barangay":"Tampadong","association":"TARBA (Tampadong Agrarian Reform Beneficiaries Association)","lon":"123.046109","province":"Camarines Sur","lat":"13.567574","municipality":"Pamplona"},{"lat":"13.555508","barangay":"Veneracion","association":" VEVUFAI (Veneracion Urban Farmers Assocaition,Inc.)","lon":"123.062039","province":"Camarines Sur","municipality":"Pamplona"}]},"__N_SSG":true}