{"pageProps":{"villages":[{"province":"Masbate","lat":"12.261882","association":"Alas Farmers Association","lon":"123.343322","municipality":"Mandaon","barangay":"Alas"},{"lon":"122.557276","association":"Cabibiroc-Alayao Farmers Association (CAFA)","lat":"14.283999","barangay":"Alayao","municipality":"Capalonga","province":"Camarines Norte"},{"lat":"13.77147","province":"Catanduanes","municipality":"Gigmoto","lon":"124.362139","barangay":"Biong","association":"Biong Farmers Association"},{"province":"Camarines Sur","lat":"13.63714","municipality":"Pamplona","barangay":"Cagbunga","lon":"123.106714","association":"Cagbunga Riverside Farmers Organization"},{"lon":"123.786951","province":"Sorsogon","association":"Dinapa Farmers Association","municipality":"Castilla","lat":"12.908257","barangay":"Dinapa"},{"barangay":"Joroan","province":"Albay","municipality":"Tiwi","lon":"123.620308","lat":"13.489628","association":"Joroan Farmers and Fisherfollks Association"},{"lon":"122.820835","association":"Paracale Corn and Cassava Farmers Association","municipality":"Paracale","lat":"14.269422","barangay":"Labnig","province":"Camarines Norte"},{"association":"AMIA (Asenso Marigondon Irrigators Association)","lon":"123.431072","province":"Albay","barangay":"Marigondon","municipality":"Pio Duran","lat":"13.054393"},{"barangay":"Peñafrancia","lat":"13.885986","association":"Peñafrancia Farmers and Fisherfolks Association","municipality":"Viga","province":"Catanduanes","lon":"124.319818"},{"municipality":"Uson","lat":"12.193129","province":"Masbate","barangay":"Quezon","association":" Quezon Small Farmers Association MaQueba (Magsaysay,Quezon and Badling","lon":"123.801844"},{"association":"San Isidro Farmers Association","lon":"124.172603","municipality":"Prieto Diaz","province":"Sorsogon","barangay":"San Isidro","lat":"13.028927"},{"province":"Masbate","barangay":"San Mateo","association":"San Mateo Farmers Association","municipality":"Uson","lon":"123.817117","lat":"12.190327"},{"association":"TARBA (Tampadong Agrarian Reform Beneficiaries Association)","lon":"123.046109","lat":"13.567574","barangay":"Tampadong","province":"Camarines Sur","municipality":"Pamplona"},{"province":"Camarines Sur","association":" VEVUFAI (Veneracion Urban Farmers Assocaition,Inc.)","lat":"13.555508","municipality":"Pamplona","barangay":"Veneracion","lon":"123.062039"}]},"__N_SSG":true}