{"pageProps":{"villages":[{"association":"Alas Farmers Association","barangay":"Alas","lon":"123.343322","municipality":"Mandaon","province":"Masbate","lat":"12.261882"},{"lon":"122.557276","province":"Camarines Norte","lat":"14.283999","association":"Cabibiroc-Alayao Farmers Association (CAFA)","municipality":"Capalonga","barangay":"Alayao"},{"province":"Catanduanes","association":"Biong Farmers Association","municipality":"Gigmoto","barangay":"Biong","lat":"13.77147","lon":"124.362139"},{"barangay":"Cagbunga","lon":"123.106714","lat":"13.63714","municipality":"Pamplona","province":"Camarines Sur","association":"Cagbunga Riverside Farmers Organization"},{"municipality":"Castilla","lon":"123.786951","barangay":"Dinapa","lat":"12.908257","association":"Dinapa Farmers Association","province":"Sorsogon"},{"province":"Albay","lon":"123.620308","lat":"13.489628","association":"Joroan Farmers and Fisherfollks Association","municipality":"Tiwi","barangay":"Joroan"},{"lat":"14.269422","municipality":"Paracale","province":"Camarines Norte","association":"Paracale Corn and Cassava Farmers Association","barangay":"Labnig","lon":"122.820835"},{"lon":"123.431072","barangay":"Marigondon","municipality":"Pio Duran","province":"Albay","lat":"13.054393","association":"AMIA (Asenso Marigondon Irrigators Association)"},{"lat":"13.885986","barangay":"Peñafrancia","municipality":"Viga","association":"Peñafrancia Farmers and Fisherfolks Association","lon":"124.319818","province":"Catanduanes"},{"barangay":"Quezon","association":" Quezon Small Farmers Association MaQueba (Magsaysay,Quezon and Badling","lon":"123.801844","province":"Masbate","municipality":"Uson","lat":"12.193129"},{"municipality":"Prieto Diaz","barangay":"San Isidro","association":"San Isidro Farmers Association","province":"Sorsogon","lon":"124.172603","lat":"13.028927"},{"province":"Masbate","lon":"123.817117","association":"San Mateo Farmers Association","barangay":"San Mateo","lat":"12.190327","municipality":"Uson"},{"lat":"13.567574","province":"Camarines Sur","barangay":"Tampadong","municipality":"Pamplona","association":"TARBA (Tampadong Agrarian Reform Beneficiaries Association)","lon":"123.046109"},{"lat":"13.555508","lon":"123.062039","barangay":"Veneracion","province":"Camarines Sur","association":" VEVUFAI (Veneracion Urban Farmers Assocaition,Inc.)","municipality":"Pamplona"}]},"__N_SSG":true}