{"pageProps":{"villages":[{"association":"Alas Farmers Association","barangay":"Alas","lon":"123.343322","municipality":"Mandaon","province":"Masbate","lat":"12.261882"},{"association":"Cabibiroc-Alayao Farmers Association (CAFA)","lat":"14.283999","barangay":"Alayao","municipality":"Capalonga","lon":"122.557276","province":"Camarines Norte"},{"barangay":"Biong","province":"Catanduanes","lat":"13.77147","lon":"124.362139","municipality":"Gigmoto","association":"Biong Farmers Association"},{"association":"Cagbunga Riverside Farmers Organization","barangay":"Cagbunga","province":"Camarines Sur","lat":"13.63714","municipality":"Pamplona","lon":"123.106714"},{"municipality":"Castilla","lat":"12.908257","barangay":"Dinapa","association":"Dinapa Farmers Association","province":"Sorsogon","lon":"123.786951"},{"lat":"13.489628","municipality":"Tiwi","barangay":"Joroan","association":"Joroan Farmers and Fisherfollks Association","lon":"123.620308","province":"Albay"},{"barangay":"Labnig","association":"Paracale Corn and Cassava Farmers Association","municipality":"Paracale","lon":"122.820835","lat":"14.269422","province":"Camarines Norte"},{"municipality":"Pio Duran","province":"Albay","barangay":"Marigondon","association":"AMIA (Asenso Marigondon Irrigators Association)","lat":"13.054393","lon":"123.431072"},{"lat":"13.885986","lon":"124.319818","barangay":"Peñafrancia","association":"Peñafrancia Farmers and Fisherfolks Association","province":"Catanduanes","municipality":"Viga"},{"association":" Quezon Small Farmers Association MaQueba (Magsaysay,Quezon and Badling","lat":"12.193129","lon":"123.801844","province":"Masbate","municipality":"Uson","barangay":"Quezon"},{"municipality":"Prieto Diaz","association":"San Isidro Farmers Association","lon":"124.172603","lat":"13.028927","province":"Sorsogon","barangay":"San Isidro"},{"lat":"12.190327","lon":"123.817117","barangay":"San Mateo","municipality":"Uson","province":"Masbate","association":"San Mateo Farmers Association"},{"barangay":"Tampadong","municipality":"Pamplona","lat":"13.567574","association":"TARBA (Tampadong Agrarian Reform Beneficiaries Association)","province":"Camarines Sur","lon":"123.046109"},{"barangay":"Veneracion","municipality":"Pamplona","province":"Camarines Sur","lat":"13.555508","association":" VEVUFAI (Veneracion Urban Farmers Assocaition,Inc.)","lon":"123.062039"}]},"__N_SSG":true}