{"pageProps":{"villages":[{"barangay":"Alas","association":"Alas Farmers Association","lat":"12.261882","municipality":"Mandaon","lon":"123.343322","province":"Masbate"},{"barangay":"Alayao","lat":"14.283999","municipality":"Capalonga","lon":"122.557276","province":"Camarines Norte","association":"Cabibiroc-Alayao Farmers Association (CAFA)"},{"barangay":"Biong","municipality":"Gigmoto","province":"Catanduanes","lon":"124.362139","lat":"13.77147","association":"Biong Farmers Association"},{"municipality":"Pamplona","province":"Camarines Sur","lon":"123.106714","barangay":"Cagbunga","lat":"13.63714","association":"Cagbunga Riverside Farmers Organization"},{"lat":"12.908257","municipality":"Castilla","association":"Dinapa Farmers Association","lon":"123.786951","province":"Sorsogon","barangay":"Dinapa"},{"lon":"123.620308","association":"Joroan Farmers and Fisherfollks Association","province":"Albay","lat":"13.489628","municipality":"Tiwi","barangay":"Joroan"},{"association":"Paracale Corn and Cassava Farmers Association","barangay":"Labnig","lon":"122.820835","lat":"14.269422","municipality":"Paracale","province":"Camarines Norte"},{"municipality":"Pio Duran","lon":"123.431072","association":"AMIA (Asenso Marigondon Irrigators Association)","province":"Albay","lat":"13.054393","barangay":"Marigondon"},{"lon":"124.319818","association":"Peñafrancia Farmers and Fisherfolks Association","barangay":"Peñafrancia","lat":"13.885986","municipality":"Viga","province":"Catanduanes"},{"barangay":"Quezon","lat":"12.193129","municipality":"Uson","province":"Masbate","lon":"123.801844","association":" Quezon Small Farmers Association MaQueba (Magsaysay,Quezon and Badling"},{"lon":"124.172603","barangay":"San Isidro","lat":"13.028927","province":"Sorsogon","association":"San Isidro Farmers Association","municipality":"Prieto Diaz"},{"association":"San Mateo Farmers Association","province":"Masbate","lon":"123.817117","lat":"12.190327","barangay":"San Mateo","municipality":"Uson"},{"barangay":"Tampadong","association":"TARBA (Tampadong Agrarian Reform Beneficiaries Association)","municipality":"Pamplona","province":"Camarines Sur","lat":"13.567574","lon":"123.046109"},{"municipality":"Pamplona","barangay":"Veneracion","lat":"13.555508","lon":"123.062039","province":"Camarines Sur","association":" VEVUFAI (Veneracion Urban Farmers Assocaition,Inc.)"}]},"__N_SSG":true}