{"pageProps":{"villages":[{"municipality":"Mandaon","lon":"123.343322","lat":"12.261882","barangay":"Alas","province":"Masbate","association":"Alas Farmers Association"},{"province":"Camarines Norte","lon":"122.557276","lat":"14.283999","association":"Cabibiroc-Alayao Farmers Association (CAFA)","barangay":"Alayao","municipality":"Capalonga"},{"lon":"124.362139","association":"Biong Farmers Association","barangay":"Biong","lat":"13.77147","province":"Catanduanes","municipality":"Gigmoto"},{"municipality":"Pamplona","lon":"123.106714","lat":"13.63714","association":"Cagbunga Riverside Farmers Organization","barangay":"Cagbunga","province":"Camarines Sur"},{"lon":"123.786951","association":"Dinapa Farmers Association","municipality":"Castilla","barangay":"Dinapa","province":"Sorsogon","lat":"12.908257"},{"municipality":"Tiwi","lon":"123.620308","association":"Joroan Farmers and Fisherfollks Association","lat":"13.489628","province":"Albay","barangay":"Joroan"},{"municipality":"Paracale","association":"Paracale Corn and Cassava Farmers Association","barangay":"Labnig","lat":"14.269422","lon":"122.820835","province":"Camarines Norte"},{"barangay":"Marigondon","association":"AMIA (Asenso Marigondon Irrigators Association)","province":"Albay","lat":"13.054393","municipality":"Pio Duran","lon":"123.431072"},{"barangay":"Peñafrancia","municipality":"Viga","province":"Catanduanes","lon":"124.319818","lat":"13.885986","association":"Peñafrancia Farmers and Fisherfolks Association"},{"lon":"123.801844","lat":"12.193129","barangay":"Quezon","association":" Quezon Small Farmers Association MaQueba (Magsaysay,Quezon and Badling","municipality":"Uson","province":"Masbate"},{"barangay":"San Isidro","association":"San Isidro Farmers Association","lat":"13.028927","province":"Sorsogon","lon":"124.172603","municipality":"Prieto Diaz"},{"lon":"123.817117","province":"Masbate","municipality":"Uson","barangay":"San Mateo","association":"San Mateo Farmers Association","lat":"12.190327"},{"lon":"123.046109","lat":"13.567574","municipality":"Pamplona","association":"TARBA (Tampadong Agrarian Reform Beneficiaries Association)","province":"Camarines Sur","barangay":"Tampadong"},{"association":" VEVUFAI (Veneracion Urban Farmers Assocaition,Inc.)","lon":"123.062039","lat":"13.555508","province":"Camarines Sur","barangay":"Veneracion","municipality":"Pamplona"}]},"__N_SSG":true}