{"pageProps":{"villages":[{"province":"Masbate","municipality":"Mandaon","lon":"123.343322","lat":"12.261882","association":"Alas Farmers Association","barangay":"Alas"},{"municipality":"Capalonga","lat":"14.283999","association":"Cabibiroc-Alayao Farmers Association (CAFA)","province":"Camarines Norte","barangay":"Alayao","lon":"122.557276"},{"municipality":"Gigmoto","lon":"124.362139","barangay":"Biong","lat":"13.77147","association":"Biong Farmers Association","province":"Catanduanes"},{"municipality":"Pamplona","lon":"123.106714","association":"Cagbunga Riverside Farmers Organization","province":"Camarines Sur","barangay":"Cagbunga","lat":"13.63714"},{"barangay":"Dinapa","association":"Dinapa Farmers Association","province":"Sorsogon","lon":"123.786951","lat":"12.908257","municipality":"Castilla"},{"association":"Joroan Farmers and Fisherfollks Association","province":"Albay","lon":"123.620308","municipality":"Tiwi","barangay":"Joroan","lat":"13.489628"},{"barangay":"Labnig","municipality":"Paracale","lat":"14.269422","lon":"122.820835","province":"Camarines Norte","association":"Paracale Corn and Cassava Farmers Association"},{"association":"AMIA (Asenso Marigondon Irrigators Association)","barangay":"Marigondon","province":"Albay","lon":"123.431072","lat":"13.054393","municipality":"Pio Duran"},{"province":"Catanduanes","barangay":"Peñafrancia","association":"Peñafrancia Farmers and Fisherfolks Association","municipality":"Viga","lon":"124.319818","lat":"13.885986"},{"lat":"12.193129","association":" Quezon Small Farmers Association MaQueba (Magsaysay,Quezon and Badling","province":"Masbate","lon":"123.801844","municipality":"Uson","barangay":"Quezon"},{"barangay":"San Isidro","municipality":"Prieto Diaz","lon":"124.172603","province":"Sorsogon","association":"San Isidro Farmers Association","lat":"13.028927"},{"province":"Masbate","lat":"12.190327","barangay":"San Mateo","lon":"123.817117","municipality":"Uson","association":"San Mateo Farmers Association"},{"municipality":"Pamplona","lon":"123.046109","lat":"13.567574","association":"TARBA (Tampadong Agrarian Reform Beneficiaries Association)","province":"Camarines Sur","barangay":"Tampadong"},{"lon":"123.062039","association":" VEVUFAI (Veneracion Urban Farmers Assocaition,Inc.)","barangay":"Veneracion","province":"Camarines Sur","municipality":"Pamplona","lat":"13.555508"}]},"__N_SSG":true}