{"pageProps":{"villages":[{"municipality":"Mandaon","association":"Alas Farmers Association","lon":"123.343322","province":"Masbate","barangay":"Alas","lat":"12.261882"},{"lat":"14.283999","barangay":"Alayao","association":"Cabibiroc-Alayao Farmers Association (CAFA)","lon":"122.557276","province":"Camarines Norte","municipality":"Capalonga"},{"association":"Biong Farmers Association","lat":"13.77147","barangay":"Biong","province":"Catanduanes","lon":"124.362139","municipality":"Gigmoto"},{"province":"Camarines Sur","barangay":"Cagbunga","association":"Cagbunga Riverside Farmers Organization","lat":"13.63714","lon":"123.106714","municipality":"Pamplona"},{"association":"Dinapa Farmers Association","province":"Sorsogon","lon":"123.786951","lat":"12.908257","municipality":"Castilla","barangay":"Dinapa"},{"association":"Joroan Farmers and Fisherfollks Association","barangay":"Joroan","lat":"13.489628","province":"Albay","municipality":"Tiwi","lon":"123.620308"},{"municipality":"Paracale","province":"Camarines Norte","lat":"14.269422","barangay":"Labnig","association":"Paracale Corn and Cassava Farmers Association","lon":"122.820835"},{"association":"AMIA (Asenso Marigondon Irrigators Association)","lon":"123.431072","lat":"13.054393","province":"Albay","barangay":"Marigondon","municipality":"Pio Duran"},{"lat":"13.885986","barangay":"Peñafrancia","lon":"124.319818","municipality":"Viga","association":"Peñafrancia Farmers and Fisherfolks Association","province":"Catanduanes"},{"association":" Quezon Small Farmers Association MaQueba (Magsaysay,Quezon and Badling","barangay":"Quezon","province":"Masbate","lat":"12.193129","municipality":"Uson","lon":"123.801844"},{"association":"San Isidro Farmers Association","lon":"124.172603","barangay":"San Isidro","province":"Sorsogon","municipality":"Prieto Diaz","lat":"13.028927"},{"association":"San Mateo Farmers Association","lon":"123.817117","province":"Masbate","municipality":"Uson","barangay":"San Mateo","lat":"12.190327"},{"province":"Camarines Sur","association":"TARBA (Tampadong Agrarian Reform Beneficiaries Association)","lat":"13.567574","municipality":"Pamplona","lon":"123.046109","barangay":"Tampadong"},{"barangay":"Veneracion","lat":"13.555508","association":" VEVUFAI (Veneracion Urban Farmers Assocaition,Inc.)","province":"Camarines Sur","municipality":"Pamplona","lon":"123.062039"}]},"__N_SSG":true}