{"pageProps":{"villages":[{"lat":"12.261882","barangay":"Alas","province":"Masbate","lon":"123.343322","association":"Alas Farmers Association","municipality":"Mandaon"},{"barangay":"Alayao","association":"Cabibiroc-Alayao Farmers Association (CAFA)","lon":"122.557276","province":"Camarines Norte","lat":"14.283999","municipality":"Capalonga"},{"association":"Biong Farmers Association","municipality":"Gigmoto","barangay":"Biong","lat":"13.77147","province":"Catanduanes","lon":"124.362139"},{"barangay":"Cagbunga","lon":"123.106714","municipality":"Pamplona","association":"Cagbunga Riverside Farmers Organization","lat":"13.63714","province":"Camarines Sur"},{"lat":"12.908257","lon":"123.786951","municipality":"Castilla","province":"Sorsogon","barangay":"Dinapa","association":"Dinapa Farmers Association"},{"lat":"13.489628","barangay":"Joroan","province":"Albay","municipality":"Tiwi","association":"Joroan Farmers and Fisherfollks Association","lon":"123.620308"},{"lon":"122.820835","barangay":"Labnig","municipality":"Paracale","association":"Paracale Corn and Cassava Farmers Association","province":"Camarines Norte","lat":"14.269422"},{"lon":"123.431072","province":"Albay","barangay":"Marigondon","lat":"13.054393","municipality":"Pio Duran","association":"AMIA (Asenso Marigondon Irrigators Association)"},{"municipality":"Viga","lat":"13.885986","barangay":"Peñafrancia","association":"Peñafrancia Farmers and Fisherfolks Association","province":"Catanduanes","lon":"124.319818"},{"lon":"123.801844","association":" Quezon Small Farmers Association MaQueba (Magsaysay,Quezon and Badling","province":"Masbate","lat":"12.193129","municipality":"Uson","barangay":"Quezon"},{"province":"Sorsogon","municipality":"Prieto Diaz","lon":"124.172603","lat":"13.028927","association":"San Isidro Farmers Association","barangay":"San Isidro"},{"association":"San Mateo Farmers Association","municipality":"Uson","barangay":"San Mateo","lon":"123.817117","lat":"12.190327","province":"Masbate"},{"municipality":"Pamplona","lat":"13.567574","province":"Camarines Sur","lon":"123.046109","barangay":"Tampadong","association":"TARBA (Tampadong Agrarian Reform Beneficiaries Association)"},{"association":" VEVUFAI (Veneracion Urban Farmers Assocaition,Inc.)","lat":"13.555508","municipality":"Pamplona","province":"Camarines Sur","lon":"123.062039","barangay":"Veneracion"}]},"__N_SSG":true}