{"pageProps":{"villages":[{"lon":"123.343322","province":"Masbate","association":"Alas Farmers Association","municipality":"Mandaon","lat":"12.261882","barangay":"Alas"},{"lon":"122.557276","barangay":"Alayao","lat":"14.283999","municipality":"Capalonga","province":"Camarines Norte","association":"Cabibiroc-Alayao Farmers Association (CAFA)"},{"province":"Catanduanes","lon":"124.362139","association":"Biong Farmers Association","barangay":"Biong","municipality":"Gigmoto","lat":"13.77147"},{"municipality":"Pamplona","lat":"13.63714","province":"Camarines Sur","lon":"123.106714","barangay":"Cagbunga","association":"Cagbunga Riverside Farmers Organization"},{"province":"Sorsogon","lat":"12.908257","association":"Dinapa Farmers Association","lon":"123.786951","municipality":"Castilla","barangay":"Dinapa"},{"lat":"13.489628","province":"Albay","lon":"123.620308","barangay":"Joroan","municipality":"Tiwi","association":"Joroan Farmers and Fisherfollks Association"},{"lon":"122.820835","province":"Camarines Norte","lat":"14.269422","municipality":"Paracale","association":"Paracale Corn and Cassava Farmers Association","barangay":"Labnig"},{"lat":"13.054393","lon":"123.431072","province":"Albay","barangay":"Marigondon","association":"AMIA (Asenso Marigondon Irrigators Association)","municipality":"Pio Duran"},{"municipality":"Viga","barangay":"Peñafrancia","lat":"13.885986","province":"Catanduanes","lon":"124.319818","association":"Peñafrancia Farmers and Fisherfolks Association"},{"lon":"123.801844","municipality":"Uson","lat":"12.193129","association":" Quezon Small Farmers Association MaQueba (Magsaysay,Quezon and Badling","province":"Masbate","barangay":"Quezon"},{"association":"San Isidro Farmers Association","lon":"124.172603","municipality":"Prieto Diaz","province":"Sorsogon","barangay":"San Isidro","lat":"13.028927"},{"association":"San Mateo Farmers Association","barangay":"San Mateo","municipality":"Uson","province":"Masbate","lat":"12.190327","lon":"123.817117"},{"province":"Camarines Sur","association":"TARBA (Tampadong Agrarian Reform Beneficiaries Association)","lon":"123.046109","lat":"13.567574","barangay":"Tampadong","municipality":"Pamplona"},{"province":"Camarines Sur","association":" VEVUFAI (Veneracion Urban Farmers Assocaition,Inc.)","barangay":"Veneracion","lat":"13.555508","municipality":"Pamplona","lon":"123.062039"}]},"__N_SSG":true}