{"pageProps":{"villages":[{"association":"Alas Farmers Association","lon":"123.343322","municipality":"Mandaon","province":"Masbate","barangay":"Alas","lat":"12.261882"},{"lon":"122.557276","municipality":"Capalonga","association":"Cabibiroc-Alayao Farmers Association (CAFA)","province":"Camarines Norte","lat":"14.283999","barangay":"Alayao"},{"barangay":"Biong","province":"Catanduanes","municipality":"Gigmoto","lon":"124.362139","lat":"13.77147","association":"Biong Farmers Association"},{"lon":"123.106714","lat":"13.63714","association":"Cagbunga Riverside Farmers Organization","municipality":"Pamplona","province":"Camarines Sur","barangay":"Cagbunga"},{"association":"Dinapa Farmers Association","municipality":"Castilla","lon":"123.786951","lat":"12.908257","province":"Sorsogon","barangay":"Dinapa"},{"lon":"123.620308","barangay":"Joroan","province":"Albay","association":"Joroan Farmers and Fisherfollks Association","municipality":"Tiwi","lat":"13.489628"},{"municipality":"Paracale","lon":"122.820835","lat":"14.269422","association":"Paracale Corn and Cassava Farmers Association","province":"Camarines Norte","barangay":"Labnig"},{"province":"Albay","association":"AMIA (Asenso Marigondon Irrigators Association)","barangay":"Marigondon","lon":"123.431072","lat":"13.054393","municipality":"Pio Duran"},{"lat":"13.885986","association":"Peñafrancia Farmers and Fisherfolks Association","barangay":"Peñafrancia","province":"Catanduanes","municipality":"Viga","lon":"124.319818"},{"association":" Quezon Small Farmers Association MaQueba (Magsaysay,Quezon and Badling","province":"Masbate","municipality":"Uson","barangay":"Quezon","lon":"123.801844","lat":"12.193129"},{"province":"Sorsogon","barangay":"San Isidro","lat":"13.028927","lon":"124.172603","association":"San Isidro Farmers Association","municipality":"Prieto Diaz"},{"association":"San Mateo Farmers Association","province":"Masbate","barangay":"San Mateo","lat":"12.190327","lon":"123.817117","municipality":"Uson"},{"lat":"13.567574","barangay":"Tampadong","municipality":"Pamplona","province":"Camarines Sur","association":"TARBA (Tampadong Agrarian Reform Beneficiaries Association)","lon":"123.046109"},{"barangay":"Veneracion","lat":"13.555508","municipality":"Pamplona","lon":"123.062039","association":" VEVUFAI (Veneracion Urban Farmers Assocaition,Inc.)","province":"Camarines Sur"}]},"__N_SSG":true}