{"pageProps":{"villages":[{"barangay":"Alas","province":"Masbate","municipality":"Mandaon","association":"Alas Farmers Association","lat":"12.261882","lon":"123.343322"},{"lat":"14.283999","association":"Cabibiroc-Alayao Farmers Association (CAFA)","barangay":"Alayao","lon":"122.557276","province":"Camarines Norte","municipality":"Capalonga"},{"municipality":"Gigmoto","province":"Catanduanes","lat":"13.77147","barangay":"Biong","association":"Biong Farmers Association","lon":"124.362139"},{"municipality":"Pamplona","lon":"123.106714","association":"Cagbunga Riverside Farmers Organization","barangay":"Cagbunga","province":"Camarines Sur","lat":"13.63714"},{"barangay":"Dinapa","lon":"123.786951","province":"Sorsogon","association":"Dinapa Farmers Association","municipality":"Castilla","lat":"12.908257"},{"municipality":"Tiwi","association":"Joroan Farmers and Fisherfollks Association","lon":"123.620308","barangay":"Joroan","lat":"13.489628","province":"Albay"},{"lon":"122.820835","lat":"14.269422","barangay":"Labnig","municipality":"Paracale","province":"Camarines Norte","association":"Paracale Corn and Cassava Farmers Association"},{"province":"Albay","barangay":"Marigondon","lon":"123.431072","association":"AMIA (Asenso Marigondon Irrigators Association)","lat":"13.054393","municipality":"Pio Duran"},{"lat":"13.885986","association":"Peñafrancia Farmers and Fisherfolks Association","municipality":"Viga","barangay":"Peñafrancia","lon":"124.319818","province":"Catanduanes"},{"province":"Masbate","lon":"123.801844","municipality":"Uson","association":" Quezon Small Farmers Association MaQueba (Magsaysay,Quezon and Badling","lat":"12.193129","barangay":"Quezon"},{"association":"San Isidro Farmers Association","province":"Sorsogon","lon":"124.172603","barangay":"San Isidro","lat":"13.028927","municipality":"Prieto Diaz"},{"barangay":"San Mateo","province":"Masbate","lon":"123.817117","municipality":"Uson","association":"San Mateo Farmers Association","lat":"12.190327"},{"province":"Camarines Sur","barangay":"Tampadong","association":"TARBA (Tampadong Agrarian Reform Beneficiaries Association)","lat":"13.567574","municipality":"Pamplona","lon":"123.046109"},{"province":"Camarines Sur","barangay":"Veneracion","lat":"13.555508","municipality":"Pamplona","association":" VEVUFAI (Veneracion Urban Farmers Assocaition,Inc.)","lon":"123.062039"}]},"__N_SSG":true}