{"pageProps":{"villages":[{"barangay":"Alas","municipality":"Mandaon","lat":"12.261882","association":"Alas Farmers Association","lon":"123.343322","province":"Masbate"},{"lat":"14.283999","barangay":"Alayao","municipality":"Capalonga","association":"Cabibiroc-Alayao Farmers Association (CAFA)","province":"Camarines Norte","lon":"122.557276"},{"association":"Biong Farmers Association","barangay":"Biong","province":"Catanduanes","municipality":"Gigmoto","lon":"124.362139","lat":"13.77147"},{"lon":"123.106714","province":"Camarines Sur","barangay":"Cagbunga","association":"Cagbunga Riverside Farmers Organization","lat":"13.63714","municipality":"Pamplona"},{"lon":"123.786951","lat":"12.908257","province":"Sorsogon","municipality":"Castilla","association":"Dinapa Farmers Association","barangay":"Dinapa"},{"lon":"123.620308","municipality":"Tiwi","association":"Joroan Farmers and Fisherfollks Association","province":"Albay","lat":"13.489628","barangay":"Joroan"},{"association":"Paracale Corn and Cassava Farmers Association","barangay":"Labnig","province":"Camarines Norte","lat":"14.269422","municipality":"Paracale","lon":"122.820835"},{"province":"Albay","association":"AMIA (Asenso Marigondon Irrigators Association)","municipality":"Pio Duran","lon":"123.431072","barangay":"Marigondon","lat":"13.054393"},{"barangay":"Peñafrancia","lon":"124.319818","association":"Peñafrancia Farmers and Fisherfolks Association","municipality":"Viga","province":"Catanduanes","lat":"13.885986"},{"barangay":"Quezon","lon":"123.801844","municipality":"Uson","association":" Quezon Small Farmers Association MaQueba (Magsaysay,Quezon and Badling","lat":"12.193129","province":"Masbate"},{"association":"San Isidro Farmers Association","municipality":"Prieto Diaz","province":"Sorsogon","barangay":"San Isidro","lat":"13.028927","lon":"124.172603"},{"municipality":"Uson","association":"San Mateo Farmers Association","lon":"123.817117","province":"Masbate","lat":"12.190327","barangay":"San Mateo"},{"barangay":"Tampadong","association":"TARBA (Tampadong Agrarian Reform Beneficiaries Association)","province":"Camarines Sur","lon":"123.046109","lat":"13.567574","municipality":"Pamplona"},{"association":" VEVUFAI (Veneracion Urban Farmers Assocaition,Inc.)","municipality":"Pamplona","province":"Camarines Sur","lat":"13.555508","barangay":"Veneracion","lon":"123.062039"}]},"__N_SSG":true}