{"pageProps":{"villages":[{"province":"Masbate","municipality":"Mandaon","barangay":"Alas","association":"Alas Farmers Association","lon":"123.343322","lat":"12.261882"},{"lat":"14.283999","province":"Camarines Norte","lon":"122.557276","association":"Cabibiroc-Alayao Farmers Association (CAFA)","barangay":"Alayao","municipality":"Capalonga"},{"lon":"124.362139","province":"Catanduanes","lat":"13.77147","association":"Biong Farmers Association","municipality":"Gigmoto","barangay":"Biong"},{"province":"Camarines Sur","lon":"123.106714","association":"Cagbunga Riverside Farmers Organization","lat":"13.63714","barangay":"Cagbunga","municipality":"Pamplona"},{"association":"Dinapa Farmers Association","province":"Sorsogon","lon":"123.786951","municipality":"Castilla","barangay":"Dinapa","lat":"12.908257"},{"barangay":"Joroan","province":"Albay","lat":"13.489628","association":"Joroan Farmers and Fisherfollks Association","municipality":"Tiwi","lon":"123.620308"},{"municipality":"Paracale","barangay":"Labnig","province":"Camarines Norte","lat":"14.269422","association":"Paracale Corn and Cassava Farmers Association","lon":"122.820835"},{"province":"Albay","municipality":"Pio Duran","lat":"13.054393","lon":"123.431072","barangay":"Marigondon","association":"AMIA (Asenso Marigondon Irrigators Association)"},{"municipality":"Viga","province":"Catanduanes","lat":"13.885986","lon":"124.319818","association":"Peñafrancia Farmers and Fisherfolks Association","barangay":"Peñafrancia"},{"lon":"123.801844","municipality":"Uson","association":" Quezon Small Farmers Association MaQueba (Magsaysay,Quezon and Badling","lat":"12.193129","province":"Masbate","barangay":"Quezon"},{"association":"San Isidro Farmers Association","municipality":"Prieto Diaz","lat":"13.028927","lon":"124.172603","barangay":"San Isidro","province":"Sorsogon"},{"province":"Masbate","association":"San Mateo Farmers Association","lon":"123.817117","municipality":"Uson","lat":"12.190327","barangay":"San Mateo"},{"barangay":"Tampadong","lon":"123.046109","province":"Camarines Sur","lat":"13.567574","association":"TARBA (Tampadong Agrarian Reform Beneficiaries Association)","municipality":"Pamplona"},{"association":" VEVUFAI (Veneracion Urban Farmers Assocaition,Inc.)","barangay":"Veneracion","province":"Camarines Sur","municipality":"Pamplona","lat":"13.555508","lon":"123.062039"}],"media":["https://firebasestorage.googleapis.com/v0/b/amia-cis-dev.appspot.com/o/media%2Fimages%2Fgallery%2Fth_clouds.png?alt=media&token=be6d403d-c2d7-4970-9be8-caa1ec484dd2","https://firebasestorage.googleapis.com/v0/b/amia-cis-dev.appspot.com/o/media%2Fimages%2Fgallery%2Fth_seasonal.png?alt=media&token=884f1234-bfc5-4927-91c7-006a90110a24","https://firebasestorage.googleapis.com/v0/b/amia-cis-dev.appspot.com/o/media%2Fimages%2Fgallery%2Fth_typhoon_03.png?alt=media&token=864f099e-29f8-4a17-b282-0af0c121254a"]},"__N_SSG":true}