{"pageProps":{"villages":[{"lat":"12.261882","municipality":"Mandaon","lon":"123.343322","province":"Masbate","association":"Alas Farmers Association","barangay":"Alas"},{"province":"Camarines Norte","association":"Cabibiroc-Alayao Farmers Association (CAFA)","lat":"14.283999","municipality":"Capalonga","barangay":"Alayao","lon":"122.557276"},{"association":"Biong Farmers Association","lon":"124.362139","lat":"13.77147","barangay":"Biong","municipality":"Gigmoto","province":"Catanduanes"},{"municipality":"Pamplona","barangay":"Cagbunga","lat":"13.63714","province":"Camarines Sur","lon":"123.106714","association":"Cagbunga Riverside Farmers Organization"},{"lat":"12.908257","association":"Dinapa Farmers Association","barangay":"Dinapa","province":"Sorsogon","municipality":"Castilla","lon":"123.786951"},{"lon":"123.620308","province":"Albay","barangay":"Joroan","lat":"13.489628","association":"Joroan Farmers and Fisherfollks Association","municipality":"Tiwi"},{"municipality":"Paracale","lon":"122.820835","province":"Camarines Norte","barangay":"Labnig","lat":"14.269422","association":"Paracale Corn and Cassava Farmers Association"},{"association":"AMIA (Asenso Marigondon Irrigators Association)","municipality":"Pio Duran","province":"Albay","lon":"123.431072","barangay":"Marigondon","lat":"13.054393"},{"municipality":"Viga","province":"Catanduanes","association":"Peñafrancia Farmers and Fisherfolks Association","barangay":"Peñafrancia","lat":"13.885986","lon":"124.319818"},{"lat":"12.193129","barangay":"Quezon","association":" Quezon Small Farmers Association MaQueba (Magsaysay,Quezon and Badling","municipality":"Uson","province":"Masbate","lon":"123.801844"},{"province":"Sorsogon","association":"San Isidro Farmers Association","lon":"124.172603","lat":"13.028927","barangay":"San Isidro","municipality":"Prieto Diaz"},{"lat":"12.190327","barangay":"San Mateo","association":"San Mateo Farmers Association","municipality":"Uson","province":"Masbate","lon":"123.817117"},{"association":"TARBA (Tampadong Agrarian Reform Beneficiaries Association)","lat":"13.567574","lon":"123.046109","barangay":"Tampadong","province":"Camarines Sur","municipality":"Pamplona"},{"lat":"13.555508","association":" VEVUFAI (Veneracion Urban Farmers Assocaition,Inc.)","barangay":"Veneracion","municipality":"Pamplona","lon":"123.062039","province":"Camarines Sur"}]},"__N_SSG":true}