{"pageProps":{"villages":[{"barangay":"Alas","lon":"123.343322","association":"Alas Farmers Association","province":"Masbate","lat":"12.261882","municipality":"Mandaon"},{"lat":"14.283999","lon":"122.557276","municipality":"Capalonga","barangay":"Alayao","association":"Cabibiroc-Alayao Farmers Association (CAFA)","province":"Camarines Norte"},{"association":"Biong Farmers Association","barangay":"Biong","lon":"124.362139","province":"Catanduanes","municipality":"Gigmoto","lat":"13.77147"},{"province":"Camarines Sur","lat":"13.63714","lon":"123.106714","municipality":"Pamplona","barangay":"Cagbunga","association":"Cagbunga Riverside Farmers Organization"},{"municipality":"Castilla","lat":"12.908257","province":"Sorsogon","association":"Dinapa Farmers Association","barangay":"Dinapa","lon":"123.786951"},{"barangay":"Joroan","lat":"13.489628","lon":"123.620308","association":"Joroan Farmers and Fisherfollks Association","municipality":"Tiwi","province":"Albay"},{"barangay":"Labnig","municipality":"Paracale","association":"Paracale Corn and Cassava Farmers Association","lon":"122.820835","province":"Camarines Norte","lat":"14.269422"},{"municipality":"Pio Duran","barangay":"Marigondon","lat":"13.054393","lon":"123.431072","association":"AMIA (Asenso Marigondon Irrigators Association)","province":"Albay"},{"lon":"124.319818","association":"Peñafrancia Farmers and Fisherfolks Association","province":"Catanduanes","barangay":"Peñafrancia","municipality":"Viga","lat":"13.885986"},{"lat":"12.193129","lon":"123.801844","province":"Masbate","municipality":"Uson","barangay":"Quezon","association":" Quezon Small Farmers Association MaQueba (Magsaysay,Quezon and Badling"},{"lat":"13.028927","barangay":"San Isidro","municipality":"Prieto Diaz","lon":"124.172603","association":"San Isidro Farmers Association","province":"Sorsogon"},{"lon":"123.817117","municipality":"Uson","lat":"12.190327","barangay":"San Mateo","province":"Masbate","association":"San Mateo Farmers Association"},{"municipality":"Pamplona","province":"Camarines Sur","barangay":"Tampadong","association":"TARBA (Tampadong Agrarian Reform Beneficiaries Association)","lon":"123.046109","lat":"13.567574"},{"municipality":"Pamplona","association":" VEVUFAI (Veneracion Urban Farmers Assocaition,Inc.)","barangay":"Veneracion","lat":"13.555508","province":"Camarines Sur","lon":"123.062039"}]},"__N_SSG":true}