{"pageProps":{"villages":[{"municipality":"Mandaon","barangay":"Alas","lat":"12.261882","association":"Alas Farmers Association","lon":"123.343322","province":"Masbate"},{"province":"Camarines Norte","municipality":"Capalonga","lon":"122.557276","lat":"14.283999","barangay":"Alayao","association":"Cabibiroc-Alayao Farmers Association (CAFA)"},{"lat":"13.77147","association":"Biong Farmers Association","province":"Catanduanes","lon":"124.362139","municipality":"Gigmoto","barangay":"Biong"},{"lat":"13.63714","association":"Cagbunga Riverside Farmers Organization","barangay":"Cagbunga","lon":"123.106714","province":"Camarines Sur","municipality":"Pamplona"},{"barangay":"Dinapa","association":"Dinapa Farmers Association","province":"Sorsogon","lat":"12.908257","municipality":"Castilla","lon":"123.786951"},{"barangay":"Joroan","lat":"13.489628","lon":"123.620308","association":"Joroan Farmers and Fisherfollks Association","province":"Albay","municipality":"Tiwi"},{"barangay":"Labnig","municipality":"Paracale","lat":"14.269422","province":"Camarines Norte","association":"Paracale Corn and Cassava Farmers Association","lon":"122.820835"},{"lat":"13.054393","association":"AMIA (Asenso Marigondon Irrigators Association)","barangay":"Marigondon","province":"Albay","lon":"123.431072","municipality":"Pio Duran"},{"association":"Peñafrancia Farmers and Fisherfolks Association","barangay":"Peñafrancia","lat":"13.885986","municipality":"Viga","province":"Catanduanes","lon":"124.319818"},{"province":"Masbate","lon":"123.801844","association":" Quezon Small Farmers Association MaQueba (Magsaysay,Quezon and Badling","municipality":"Uson","barangay":"Quezon","lat":"12.193129"},{"barangay":"San Isidro","municipality":"Prieto Diaz","lat":"13.028927","association":"San Isidro Farmers Association","province":"Sorsogon","lon":"124.172603"},{"barangay":"San Mateo","lat":"12.190327","lon":"123.817117","province":"Masbate","association":"San Mateo Farmers Association","municipality":"Uson"},{"lat":"13.567574","barangay":"Tampadong","municipality":"Pamplona","lon":"123.046109","association":"TARBA (Tampadong Agrarian Reform Beneficiaries Association)","province":"Camarines Sur"},{"municipality":"Pamplona","barangay":"Veneracion","lon":"123.062039","association":" VEVUFAI (Veneracion Urban Farmers Assocaition,Inc.)","province":"Camarines Sur","lat":"13.555508"}],"media":["https://firebasestorage.googleapis.com/v0/b/amia-cis-dev.appspot.com/o/media%2Fimages%2Fgallery%2Fth_clouds.png?alt=media&token=be6d403d-c2d7-4970-9be8-caa1ec484dd2","https://firebasestorage.googleapis.com/v0/b/amia-cis-dev.appspot.com/o/media%2Fimages%2Fgallery%2Fth_seasonal.png?alt=media&token=884f1234-bfc5-4927-91c7-006a90110a24","https://firebasestorage.googleapis.com/v0/b/amia-cis-dev.appspot.com/o/media%2Fimages%2Fgallery%2Fth_typhoon_03.png?alt=media&token=864f099e-29f8-4a17-b282-0af0c121254a"],"info":{"description":"View or download bulletin PDF recommendations for the Seasonal and 10-Day Weather Outlook","url":"https://firebasestorage.googleapis.com/v0/b/amia-cis-dev.appspot.com/o/media%2Fimages%2Fopengraph%2F1200x600%2Fog_bulletins_1200.png?alt=media&token=54e900b0-cb13-4f0f-9418-b8052580ffeb","path":"https://amia-cis.github.io/bulletins"}},"__N_SSG":true}