{"pageProps":{"villages":[{"lat":"12.261882","province":"Masbate","association":"Alas Farmers Association","municipality":"Mandaon","barangay":"Alas","lon":"123.343322"},{"barangay":"Alayao","province":"Camarines Norte","lat":"14.283999","lon":"122.557276","association":"Cabibiroc-Alayao Farmers Association (CAFA)","municipality":"Capalonga"},{"lon":"124.362139","lat":"13.77147","barangay":"Biong","municipality":"Gigmoto","association":"Biong Farmers Association","province":"Catanduanes"},{"association":"Cagbunga Riverside Farmers Organization","barangay":"Cagbunga","lat":"13.63714","municipality":"Pamplona","lon":"123.106714","province":"Camarines Sur"},{"municipality":"Castilla","lat":"12.908257","lon":"123.786951","barangay":"Dinapa","association":"Dinapa Farmers Association","province":"Sorsogon"},{"lat":"13.489628","lon":"123.620308","barangay":"Joroan","association":"Joroan Farmers and Fisherfollks Association","province":"Albay","municipality":"Tiwi"},{"barangay":"Labnig","association":"Paracale Corn and Cassava Farmers Association","province":"Camarines Norte","lon":"122.820835","lat":"14.269422","municipality":"Paracale"},{"municipality":"Pio Duran","barangay":"Marigondon","lat":"13.054393","lon":"123.431072","association":"AMIA (Asenso Marigondon Irrigators Association)","province":"Albay"},{"province":"Catanduanes","municipality":"Viga","association":"Peñafrancia Farmers and Fisherfolks Association","barangay":"Peñafrancia","lon":"124.319818","lat":"13.885986"},{"lat":"12.193129","municipality":"Uson","lon":"123.801844","association":" Quezon Small Farmers Association MaQueba (Magsaysay,Quezon and Badling","barangay":"Quezon","province":"Masbate"},{"municipality":"Prieto Diaz","barangay":"San Isidro","lat":"13.028927","province":"Sorsogon","association":"San Isidro Farmers Association","lon":"124.172603"},{"barangay":"San Mateo","association":"San Mateo Farmers Association","municipality":"Uson","province":"Masbate","lat":"12.190327","lon":"123.817117"},{"barangay":"Tampadong","lon":"123.046109","lat":"13.567574","province":"Camarines Sur","association":"TARBA (Tampadong Agrarian Reform Beneficiaries Association)","municipality":"Pamplona"},{"municipality":"Pamplona","lat":"13.555508","barangay":"Veneracion","association":" VEVUFAI (Veneracion Urban Farmers Assocaition,Inc.)","lon":"123.062039","province":"Camarines Sur"}],"media":{"description":"Agro-Climatic Advisory Portal-Bicol (ACAP-BICOL) serves as a centralized hub for the development of Climate Information Services (CIS) in the Bicol Region. It contains relevant weather and climate information which can be used in developing tailored advisories and crop recommendations.","url":"https://firebasestorage.googleapis.com/v0/b/amia-cis-dev.appspot.com/o/media%2Fimages%2Fopengraph%2F1200x600%2Fog_home_1200.png?alt=media&token=51f9241c-45da-456e-9906-677c2f8fe93a","path":"https://amia-cis.github.io"}},"__N_SSG":true}