{"pageProps":{"villages":[{"barangay":"Alas","lat":"12.261882","municipality":"Mandaon","association":"Alas Farmers Association","lon":"123.343322","province":"Masbate"},{"lat":"14.283999","barangay":"Alayao","lon":"122.557276","municipality":"Capalonga","association":"Cabibiroc-Alayao Farmers Association (CAFA)","province":"Camarines Norte"},{"municipality":"Gigmoto","lon":"124.362139","barangay":"Biong","lat":"13.77147","province":"Catanduanes","association":"Biong Farmers Association"},{"barangay":"Cagbunga","lat":"13.63714","municipality":"Pamplona","province":"Camarines Sur","association":"Cagbunga Riverside Farmers Organization","lon":"123.106714"},{"association":"Dinapa Farmers Association","province":"Sorsogon","barangay":"Dinapa","municipality":"Castilla","lat":"12.908257","lon":"123.786951"},{"municipality":"Tiwi","province":"Albay","lon":"123.620308","lat":"13.489628","association":"Joroan Farmers and Fisherfollks Association","barangay":"Joroan"},{"association":"Paracale Corn and Cassava Farmers Association","lon":"122.820835","lat":"14.269422","barangay":"Labnig","province":"Camarines Norte","municipality":"Paracale"},{"association":"AMIA (Asenso Marigondon Irrigators Association)","barangay":"Marigondon","municipality":"Pio Duran","province":"Albay","lon":"123.431072","lat":"13.054393"},{"municipality":"Viga","province":"Catanduanes","association":"Peñafrancia Farmers and Fisherfolks Association","lat":"13.885986","lon":"124.319818","barangay":"Peñafrancia"},{"association":" Quezon Small Farmers Association MaQueba (Magsaysay,Quezon and Badling","lat":"12.193129","municipality":"Uson","barangay":"Quezon","lon":"123.801844","province":"Masbate"},{"lon":"124.172603","lat":"13.028927","municipality":"Prieto Diaz","barangay":"San Isidro","province":"Sorsogon","association":"San Isidro Farmers Association"},{"barangay":"San Mateo","lat":"12.190327","lon":"123.817117","association":"San Mateo Farmers Association","province":"Masbate","municipality":"Uson"},{"barangay":"Tampadong","municipality":"Pamplona","lat":"13.567574","province":"Camarines Sur","lon":"123.046109","association":"TARBA (Tampadong Agrarian Reform Beneficiaries Association)"},{"association":" VEVUFAI (Veneracion Urban Farmers Assocaition,Inc.)","municipality":"Pamplona","lon":"123.062039","province":"Camarines Sur","barangay":"Veneracion","lat":"13.555508"}]},"__N_SSG":true}