{"pageProps":{"villages":[{"municipality":"Mandaon","association":"Alas Farmers Association","lon":"123.343322","lat":"12.261882","province":"Masbate","barangay":"Alas"},{"lat":"14.283999","lon":"122.557276","municipality":"Capalonga","barangay":"Alayao","association":"Cabibiroc-Alayao Farmers Association (CAFA)","province":"Camarines Norte"},{"association":"Biong Farmers Association","municipality":"Gigmoto","lat":"13.77147","province":"Catanduanes","lon":"124.362139","barangay":"Biong"},{"municipality":"Pamplona","association":"Cagbunga Riverside Farmers Organization","lat":"13.63714","province":"Camarines Sur","lon":"123.106714","barangay":"Cagbunga"},{"province":"Sorsogon","lon":"123.786951","association":"Dinapa Farmers Association","lat":"12.908257","municipality":"Castilla","barangay":"Dinapa"},{"barangay":"Joroan","municipality":"Tiwi","province":"Albay","lat":"13.489628","lon":"123.620308","association":"Joroan Farmers and Fisherfollks Association"},{"lat":"14.269422","association":"Paracale Corn and Cassava Farmers Association","municipality":"Paracale","barangay":"Labnig","province":"Camarines Norte","lon":"122.820835"},{"municipality":"Pio Duran","lat":"13.054393","province":"Albay","lon":"123.431072","association":"AMIA (Asenso Marigondon Irrigators Association)","barangay":"Marigondon"},{"province":"Catanduanes","lon":"124.319818","municipality":"Viga","barangay":"Peñafrancia","lat":"13.885986","association":"Peñafrancia Farmers and Fisherfolks Association"},{"association":" Quezon Small Farmers Association MaQueba (Magsaysay,Quezon and Badling","lat":"12.193129","municipality":"Uson","lon":"123.801844","barangay":"Quezon","province":"Masbate"},{"lon":"124.172603","barangay":"San Isidro","province":"Sorsogon","association":"San Isidro Farmers Association","municipality":"Prieto Diaz","lat":"13.028927"},{"municipality":"Uson","province":"Masbate","barangay":"San Mateo","lon":"123.817117","lat":"12.190327","association":"San Mateo Farmers Association"},{"lon":"123.046109","barangay":"Tampadong","province":"Camarines Sur","association":"TARBA (Tampadong Agrarian Reform Beneficiaries Association)","lat":"13.567574","municipality":"Pamplona"},{"association":" VEVUFAI (Veneracion Urban Farmers Assocaition,Inc.)","municipality":"Pamplona","lon":"123.062039","province":"Camarines Sur","lat":"13.555508","barangay":"Veneracion"}]},"__N_SSG":true}