{"pageProps":{"villages":[{"barangay":"Alas","municipality":"Mandaon","lat":"12.261882","province":"Masbate","association":"Alas Farmers Association","lon":"123.343322"},{"association":"Cabibiroc-Alayao Farmers Association (CAFA)","lon":"122.557276","province":"Camarines Norte","municipality":"Capalonga","barangay":"Alayao","lat":"14.283999"},{"association":"Biong Farmers Association","lon":"124.362139","lat":"13.77147","municipality":"Gigmoto","barangay":"Biong","province":"Catanduanes"},{"province":"Camarines Sur","association":"Cagbunga Riverside Farmers Organization","lon":"123.106714","lat":"13.63714","barangay":"Cagbunga","municipality":"Pamplona"},{"barangay":"Dinapa","province":"Sorsogon","municipality":"Castilla","lon":"123.786951","lat":"12.908257","association":"Dinapa Farmers Association"},{"municipality":"Tiwi","lon":"123.620308","association":"Joroan Farmers and Fisherfollks Association","lat":"13.489628","barangay":"Joroan","province":"Albay"},{"lat":"14.269422","province":"Camarines Norte","barangay":"Labnig","lon":"122.820835","association":"Paracale Corn and Cassava Farmers Association","municipality":"Paracale"},{"association":"AMIA (Asenso Marigondon Irrigators Association)","municipality":"Pio Duran","barangay":"Marigondon","province":"Albay","lat":"13.054393","lon":"123.431072"},{"association":"Peñafrancia Farmers and Fisherfolks Association","barangay":"Peñafrancia","lon":"124.319818","lat":"13.885986","province":"Catanduanes","municipality":"Viga"},{"municipality":"Uson","province":"Masbate","barangay":"Quezon","lon":"123.801844","association":" Quezon Small Farmers Association MaQueba (Magsaysay,Quezon and Badling","lat":"12.193129"},{"province":"Sorsogon","association":"San Isidro Farmers Association","lat":"13.028927","barangay":"San Isidro","municipality":"Prieto Diaz","lon":"124.172603"},{"lon":"123.817117","lat":"12.190327","province":"Masbate","barangay":"San Mateo","municipality":"Uson","association":"San Mateo Farmers Association"},{"barangay":"Tampadong","lon":"123.046109","association":"TARBA (Tampadong Agrarian Reform Beneficiaries Association)","province":"Camarines Sur","lat":"13.567574","municipality":"Pamplona"},{"lat":"13.555508","province":"Camarines Sur","association":" VEVUFAI (Veneracion Urban Farmers Assocaition,Inc.)","municipality":"Pamplona","lon":"123.062039","barangay":"Veneracion"}]},"__N_SSG":true}