{"pageProps":{"villages":[{"association":"Alas Farmers Association","municipality":"Mandaon","barangay":"Alas","province":"Masbate","lon":"123.343322","lat":"12.261882"},{"lon":"122.557276","municipality":"Capalonga","barangay":"Alayao","lat":"14.283999","province":"Camarines Norte","association":"Cabibiroc-Alayao Farmers Association (CAFA)"},{"lon":"124.362139","province":"Catanduanes","municipality":"Gigmoto","lat":"13.77147","barangay":"Biong","association":"Biong Farmers Association"},{"province":"Camarines Sur","municipality":"Pamplona","barangay":"Cagbunga","lon":"123.106714","lat":"13.63714","association":"Cagbunga Riverside Farmers Organization"},{"municipality":"Castilla","lat":"12.908257","lon":"123.786951","province":"Sorsogon","association":"Dinapa Farmers Association","barangay":"Dinapa"},{"lon":"123.620308","municipality":"Tiwi","province":"Albay","lat":"13.489628","barangay":"Joroan","association":"Joroan Farmers and Fisherfollks Association"},{"province":"Camarines Norte","lat":"14.269422","association":"Paracale Corn and Cassava Farmers Association","municipality":"Paracale","barangay":"Labnig","lon":"122.820835"},{"lat":"13.054393","association":"AMIA (Asenso Marigondon Irrigators Association)","province":"Albay","lon":"123.431072","barangay":"Marigondon","municipality":"Pio Duran"},{"lat":"13.885986","municipality":"Viga","province":"Catanduanes","association":"Peñafrancia Farmers and Fisherfolks Association","barangay":"Peñafrancia","lon":"124.319818"},{"barangay":"Quezon","municipality":"Uson","lat":"12.193129","lon":"123.801844","association":" Quezon Small Farmers Association MaQueba (Magsaysay,Quezon and Badling","province":"Masbate"},{"association":"San Isidro Farmers Association","barangay":"San Isidro","lon":"124.172603","lat":"13.028927","municipality":"Prieto Diaz","province":"Sorsogon"},{"association":"San Mateo Farmers Association","barangay":"San Mateo","province":"Masbate","lon":"123.817117","municipality":"Uson","lat":"12.190327"},{"association":"TARBA (Tampadong Agrarian Reform Beneficiaries Association)","barangay":"Tampadong","lon":"123.046109","province":"Camarines Sur","lat":"13.567574","municipality":"Pamplona"},{"barangay":"Veneracion","association":" VEVUFAI (Veneracion Urban Farmers Assocaition,Inc.)","province":"Camarines Sur","lat":"13.555508","lon":"123.062039","municipality":"Pamplona"}],"media":["https://firebasestorage.googleapis.com/v0/b/amia-cis-dev.appspot.com/o/media%2Fimages%2Fgallery%2Fth_clouds.png?alt=media&token=be6d403d-c2d7-4970-9be8-caa1ec484dd2","https://firebasestorage.googleapis.com/v0/b/amia-cis-dev.appspot.com/o/media%2Fimages%2Fgallery%2Fth_seasonal.png?alt=media&token=884f1234-bfc5-4927-91c7-006a90110a24","https://firebasestorage.googleapis.com/v0/b/amia-cis-dev.appspot.com/o/media%2Fimages%2Fgallery%2Fth_typhoon_03.png?alt=media&token=864f099e-29f8-4a17-b282-0af0c121254a"]},"__N_SSG":true}