{"pageProps":{"villages":[{"lat":"12.261882","province":"Masbate","barangay":"Alas","lon":"123.343322","municipality":"Mandaon","association":"Alas Farmers Association"},{"association":"Cabibiroc-Alayao Farmers Association (CAFA)","lat":"14.283999","lon":"122.557276","municipality":"Capalonga","province":"Camarines Norte","barangay":"Alayao"},{"lon":"124.362139","lat":"13.77147","association":"Biong Farmers Association","province":"Catanduanes","barangay":"Biong","municipality":"Gigmoto"},{"lat":"13.63714","association":"Cagbunga Riverside Farmers Organization","province":"Camarines Sur","municipality":"Pamplona","lon":"123.106714","barangay":"Cagbunga"},{"municipality":"Castilla","province":"Sorsogon","barangay":"Dinapa","lon":"123.786951","lat":"12.908257","association":"Dinapa Farmers Association"},{"lon":"123.620308","province":"Albay","municipality":"Tiwi","lat":"13.489628","barangay":"Joroan","association":"Joroan Farmers and Fisherfollks Association"},{"lon":"122.820835","barangay":"Labnig","lat":"14.269422","municipality":"Paracale","province":"Camarines Norte","association":"Paracale Corn and Cassava Farmers Association"},{"association":"AMIA (Asenso Marigondon Irrigators Association)","lat":"13.054393","lon":"123.431072","barangay":"Marigondon","province":"Albay","municipality":"Pio Duran"},{"province":"Catanduanes","lat":"13.885986","barangay":"Peñafrancia","lon":"124.319818","municipality":"Viga","association":"Peñafrancia Farmers and Fisherfolks Association"},{"province":"Masbate","association":" Quezon Small Farmers Association MaQueba (Magsaysay,Quezon and Badling","lon":"123.801844","municipality":"Uson","lat":"12.193129","barangay":"Quezon"},{"lon":"124.172603","association":"San Isidro Farmers Association","lat":"13.028927","barangay":"San Isidro","municipality":"Prieto Diaz","province":"Sorsogon"},{"barangay":"San Mateo","municipality":"Uson","association":"San Mateo Farmers Association","province":"Masbate","lon":"123.817117","lat":"12.190327"},{"lat":"13.567574","association":"TARBA (Tampadong Agrarian Reform Beneficiaries Association)","lon":"123.046109","barangay":"Tampadong","province":"Camarines Sur","municipality":"Pamplona"},{"municipality":"Pamplona","barangay":"Veneracion","lat":"13.555508","province":"Camarines Sur","lon":"123.062039","association":" VEVUFAI (Veneracion Urban Farmers Assocaition,Inc.)"}]},"__N_SSG":true}