{"pageProps":{"villages":[{"municipality":"Mandaon","lon":"123.343322","barangay":"Alas","province":"Masbate","lat":"12.261882","association":"Alas Farmers Association"},{"association":"Cabibiroc-Alayao Farmers Association (CAFA)","province":"Camarines Norte","barangay":"Alayao","lat":"14.283999","municipality":"Capalonga","lon":"122.557276"},{"municipality":"Gigmoto","lat":"13.77147","province":"Catanduanes","barangay":"Biong","lon":"124.362139","association":"Biong Farmers Association"},{"lat":"13.63714","association":"Cagbunga Riverside Farmers Organization","lon":"123.106714","municipality":"Pamplona","barangay":"Cagbunga","province":"Camarines Sur"},{"lon":"123.786951","province":"Sorsogon","barangay":"Dinapa","association":"Dinapa Farmers Association","municipality":"Castilla","lat":"12.908257"},{"barangay":"Joroan","lat":"13.489628","province":"Albay","municipality":"Tiwi","association":"Joroan Farmers and Fisherfollks Association","lon":"123.620308"},{"lat":"14.269422","barangay":"Labnig","province":"Camarines Norte","lon":"122.820835","municipality":"Paracale","association":"Paracale Corn and Cassava Farmers Association"},{"municipality":"Pio Duran","association":"AMIA (Asenso Marigondon Irrigators Association)","lat":"13.054393","barangay":"Marigondon","province":"Albay","lon":"123.431072"},{"association":"Peñafrancia Farmers and Fisherfolks Association","lon":"124.319818","municipality":"Viga","lat":"13.885986","province":"Catanduanes","barangay":"Peñafrancia"},{"province":"Masbate","lat":"12.193129","municipality":"Uson","association":" Quezon Small Farmers Association MaQueba (Magsaysay,Quezon and Badling","lon":"123.801844","barangay":"Quezon"},{"province":"Sorsogon","lon":"124.172603","municipality":"Prieto Diaz","lat":"13.028927","association":"San Isidro Farmers Association","barangay":"San Isidro"},{"municipality":"Uson","association":"San Mateo Farmers Association","lat":"12.190327","lon":"123.817117","province":"Masbate","barangay":"San Mateo"},{"municipality":"Pamplona","association":"TARBA (Tampadong Agrarian Reform Beneficiaries Association)","lat":"13.567574","province":"Camarines Sur","barangay":"Tampadong","lon":"123.046109"},{"barangay":"Veneracion","municipality":"Pamplona","lon":"123.062039","lat":"13.555508","association":" VEVUFAI (Veneracion Urban Farmers Assocaition,Inc.)","province":"Camarines Sur"}],"media":["https://firebasestorage.googleapis.com/v0/b/amia-cis-dev.appspot.com/o/media%2Fimages%2Fgallery%2Fth_clouds.png?alt=media&token=be6d403d-c2d7-4970-9be8-caa1ec484dd2","https://firebasestorage.googleapis.com/v0/b/amia-cis-dev.appspot.com/o/media%2Fimages%2Fgallery%2Fth_seasonal.png?alt=media&token=884f1234-bfc5-4927-91c7-006a90110a24","https://firebasestorage.googleapis.com/v0/b/amia-cis-dev.appspot.com/o/media%2Fimages%2Fgallery%2Fth_typhoon_03.png?alt=media&token=864f099e-29f8-4a17-b282-0af0c121254a"]},"__N_SSG":true}